[
  {
    "id": 4722,
    "name": "太原府",
    "count": 160,
    "lat": 37.873748779,
    "lng": 112.56482697,
    "people": [
      {
        "name": "周紘",
        "year": 1478,
        "addr": "陽曲",
        "lat": 37.873753,
        "lng": 112.564827
      },
      {
        "name": "周經",
        "year": 1460,
        "addr": "陽曲",
        "lat": 37.873753,
        "lng": 112.564827
      },
      {
        "name": "李敏",
        "year": 1547,
        "addr": "榆次",
        "lat": 37.678467,
        "lng": 112.744682
      },
      {
        "name": "薄彥徽",
        "year": 1496,
        "addr": "陽曲",
        "lat": 37.873753,
        "lng": 112.564827
      },
      {
        "name": "張文明",
        "year": 1511,
        "addr": "陽曲",
        "lat": 37.873753,
        "lng": 112.564827
      },
      {
        "name": "王瓊",
        "year": 1484,
        "addr": "太原",
        "lat": 37.873748779,
        "lng": 112.56482697
      },
      {
        "name": "寇天敍",
        "year": 1508,
        "addr": "榆次",
        "lat": 37.678467,
        "lng": 112.744682
      },
      {
        "name": "解一貫",
        "year": 1521,
        "addr": "交城",
        "lat": 37.544411,
        "lng": 112.156273
      },
      {
        "name": "周鈇",
        "year": 1526,
        "addr": "榆次",
        "lat": 37.678467,
        "lng": 112.744682
      },
      {
        "name": "王道行",
        "year": 1550,
        "addr": "陽曲",
        "lat": 37.873753,
        "lng": 112.564827
      },
      {
        "name": "王璒",
        "year": 1464,
        "addr": "太原",
        "lat": 37.873748779,
        "lng": 112.56482697
      },
      {
        "name": "安金",
        "year": 1505,
        "addr": "陽曲",
        "lat": 37.873753,
        "lng": 112.564827
      },
      {
        "name": "任瀛",
        "year": 1535,
        "addr": "文水",
        "lat": 37.436981201,
        "lng": 112.02419281
      },
      {
        "name": "李擧",
        "year": 1493,
        "addr": "河曲",
        "lat": 39.169819,
        "lng": 111.219826
      },
      {
        "name": "成文",
        "year": 1502,
        "addr": "文水",
        "lat": 37.436981201,
        "lng": 112.02419281
      },
      {
        "name": "成守節",
        "year": 1553,
        "addr": "太谷",
        "lat": 37.425507,
        "lng": 112.552765
      },
      {
        "name": "胡體乾",
        "year": 1521,
        "addr": "交城",
        "lat": 37.544411,
        "lng": 112.156273
      },
      {
        "name": "苗朝陽",
        "year": 1577,
        "addr": "河曲",
        "lat": 39.169819,
        "lng": 111.219826
      },
      {
        "name": "侯綸",
        "year": 1511,
        "addr": "太原",
        "lat": 37.873748779,
        "lng": 112.56482697
      },
      {
        "name": "段堅",
        "year": 1454,
        "addr": "陽曲",
        "lat": 37.873753,
        "lng": 112.564827
      },
      {
        "name": "唐希介",
        "year": 1487,
        "addr": "陽曲",
        "lat": 37.873753,
        "lng": 112.564827
      },
      {
        "name": "孫繼先",
        "year": 1571,
        "addr": "盂縣",
        "lat": 38.090957642,
        "lng": 113.4129715
      },
      {
        "name": "張光祖",
        "year": 1532,
        "addr": "陽曲",
        "lat": 37.873753,
        "lng": 112.564827
      },
      {
        "name": "張頤",
        "year": 1460,
        "addr": "太原",
        "lat": 37.873748779,
        "lng": 112.56482697
      },
      {
        "name": "張縉",
        "year": 1469,
        "addr": "陽曲",
        "lat": 37.873753,
        "lng": 112.564827
      },
      {
        "name": "陳璘",
        "year": 1493,
        "addr": "陽曲",
        "lat": 37.873753,
        "lng": 112.564827
      },
      {
        "name": "陳壁",
        "year": 1502,
        "addr": "太谷",
        "lat": 37.425507,
        "lng": 112.552765
      },
      {
        "name": "常泰",
        "year": 1521,
        "addr": "徐溝",
        "lat": 37.557182,
        "lng": 112.508995
      },
      {
        "name": "褚鈇",
        "year": 1565,
        "addr": "榆次",
        "lat": 37.678467,
        "lng": 112.744682
      },
      {
        "name": "閻樸",
        "year": 1532,
        "addr": "榆次",
        "lat": 37.678467,
        "lng": 112.744682
      },
      {
        "name": "韓祐",
        "year": 1487,
        "addr": "交城",
        "lat": 37.544411,
        "lng": 112.156273
      },
      {
        "name": "戴光啟",
        "year": 1571,
        "addr": "祁縣",
        "lat": 37.353817,
        "lng": 112.3153
      },
      {
        "name": "羅賢",
        "year": 1490,
        "addr": "清源",
        "lat": 37.557182,
        "lng": 112.508995
      },
      {
        "name": "楊璡",
        "year": 1451,
        "addr": "祁縣",
        "lat": 37.353817,
        "lng": 112.3153
      },
      {
        "name": "龐瑄",
        "year": 1464,
        "addr": "祁縣",
        "lat": 37.353817,
        "lng": 112.3153
      },
      {
        "name": "羅元吉",
        "year": 1469,
        "addr": "榆次",
        "lat": 37.678467,
        "lng": 112.744682
      },
      {
        "name": "趙文盛",
        "year": 1472,
        "addr": "陽曲",
        "lat": 37.873753,
        "lng": 112.564827
      },
      {
        "name": "許斌",
        "year": 1472,
        "addr": "陽曲",
        "lat": 37.873753,
        "lng": 112.564827
      },
      {
        "name": "崔俊",
        "year": 1472,
        "addr": "陽曲",
        "lat": 37.873753,
        "lng": 112.564827
      },
      {
        "name": "羅元祥",
        "year": 1472,
        "addr": "榆次",
        "lat": 37.678467,
        "lng": 112.744682
      },
      {
        "name": "趙繡",
        "year": 1475,
        "addr": "陽曲",
        "lat": 37.873753,
        "lng": 112.564827
      },
      {
        "name": "李敦",
        "year": 1400,
        "addr": "太原",
        "lat": 37.873748779,
        "lng": 112.56482697
      },
      {
        "name": "郭秩",
        "year": 1400,
        "addr": "祁縣",
        "lat": 37.353817,
        "lng": 112.3153
      },
      {
        "name": "李思仁",
        "year": 1481,
        "addr": "陽曲",
        "lat": 37.873753,
        "lng": 112.564827
      },
      {
        "name": "王槐",
        "year": 1481,
        "addr": "陽曲",
        "lat": 37.873753,
        "lng": 112.564827
      },
      {
        "name": "韓祜",
        "year": 1487,
        "addr": "交城",
        "lat": 37.544411,
        "lng": 112.156273
      },
      {
        "name": "李瀚",
        "year": 1487,
        "addr": "陽曲",
        "lat": 37.873753,
        "lng": 112.564827
      },
      {
        "name": "郝本",
        "year": 1487,
        "addr": "陽曲",
        "lat": 37.873753,
        "lng": 112.564827
      },
      {
        "name": "崔侃",
        "year": 1490,
        "addr": "陽曲",
        "lat": 37.873753,
        "lng": 112.564827
      },
      {
        "name": "胡雍",
        "year": 1490,
        "addr": "臨縣",
        "lat": 37.952896,
        "lng": 110.983116
      },
      {
        "name": "杜馴",
        "year": 1493,
        "addr": "徐溝",
        "lat": 37.557182,
        "lng": 112.508995
      },
      {
        "name": "韓紘",
        "year": 1493,
        "addr": "陽曲",
        "lat": 37.873753,
        "lng": 112.564827
      },
      {
        "name": "李天賦",
        "year": 1493,
        "addr": "交城",
        "lat": 37.544411,
        "lng": 112.156273
      },
      {
        "name": "許承芳",
        "year": 1496,
        "addr": "陽曲",
        "lat": 37.873753,
        "lng": 112.564827
      },
      {
        "name": "冠儉",
        "year": 1496,
        "addr": "榆次",
        "lat": 37.678467,
        "lng": 112.744682
      },
      {
        "name": "馮永固",
        "year": 1496,
        "addr": "陽曲",
        "lat": 37.873753,
        "lng": 112.564827
      },
      {
        "name": "王尚賓",
        "year": 1496,
        "addr": "陽曲",
        "lat": 37.873753,
        "lng": 112.564827
      },
      {
        "name": "馮憲",
        "year": 1502,
        "addr": "文水",
        "lat": 37.436981201,
        "lng": 112.02419281
      },
      {
        "name": "段炅",
        "year": 1505,
        "addr": "陽曲",
        "lat": 37.873753,
        "lng": 112.564827
      },
      {
        "name": "郭濂",
        "year": 1505,
        "addr": "榆次",
        "lat": 37.678467,
        "lng": 112.744682
      },
      {
        "name": "閻鐸",
        "year": 1505,
        "addr": "太原府",
        "lat": 37.873748779,
        "lng": 112.56482697
      },
      {
        "name": "張仲賢",
        "year": 1505,
        "addr": "陽曲",
        "lat": 37.873753,
        "lng": 112.564827
      },
      {
        "name": "姚文清",
        "year": 1511,
        "addr": "陽曲",
        "lat": 37.873753,
        "lng": 112.564827
      },
      {
        "name": "張寶",
        "year": 1517,
        "addr": "盂縣",
        "lat": 38.090957642,
        "lng": 113.4129715
      },
      {
        "name": "高汝行",
        "year": 1521,
        "addr": "太原",
        "lat": 37.873748779,
        "lng": 112.56482697
      },
      {
        "name": "李春芳",
        "year": 1521,
        "addr": "陽曲",
        "lat": 37.873753,
        "lng": 112.564827
      },
      {
        "name": "寇陽",
        "year": 1529,
        "addr": "榆次",
        "lat": 37.678467,
        "lng": 112.744682
      },
      {
        "name": "李朝陽",
        "year": 1532,
        "addr": "清源",
        "lat": 37.557182,
        "lng": 112.508995
      },
      {
        "name": "張梯",
        "year": 1532,
        "addr": "陽曲",
        "lat": 37.873753,
        "lng": 112.564827
      },
      {
        "name": "唐頤",
        "year": 1535,
        "addr": "陽曲",
        "lat": 37.873753,
        "lng": 112.564827
      },
      {
        "name": "王崇冠",
        "year": 1535,
        "addr": "榆次",
        "lat": 37.678467,
        "lng": 112.744682
      },
      {
        "name": "郭廷冕",
        "year": 1535,
        "addr": "文水",
        "lat": 37.436981201,
        "lng": 112.02419281
      },
      {
        "name": "王撫民",
        "year": 1541,
        "addr": "清源",
        "lat": 37.557182,
        "lng": 112.508995
      },
      {
        "name": "魏希相",
        "year": 1541,
        "addr": "陽曲",
        "lat": 37.873753,
        "lng": 112.564827
      },
      {
        "name": "路伯鏜",
        "year": 1541,
        "addr": "陽曲",
        "lat": 37.873753,
        "lng": 112.564827
      },
      {
        "name": "張淑勵",
        "year": 1541,
        "addr": "盂縣",
        "lat": 38.090957642,
        "lng": 113.4129715
      },
      {
        "name": "閻繩芳",
        "year": 1547,
        "addr": "祁縣",
        "lat": 37.353817,
        "lng": 112.3153
      },
      {
        "name": "聶瀛",
        "year": 1550,
        "addr": "陽曲",
        "lat": 37.873753,
        "lng": 112.564827
      },
      {
        "name": "李彥士",
        "year": 1550,
        "addr": "榆次",
        "lat": 37.678467,
        "lng": 112.744682
      },
      {
        "name": "郭文輔",
        "year": 1553,
        "addr": "陽曲",
        "lat": 37.873753,
        "lng": 112.564827
      },
      {
        "name": "郭文和",
        "year": 1562,
        "addr": "陽曲",
        "lat": 37.873753,
        "lng": 112.564827
      },
      {
        "name": "劉珮",
        "year": 1562,
        "addr": "盂縣",
        "lat": 38.090957642,
        "lng": 113.4129715
      },
      {
        "name": "趙體敬",
        "year": 1562,
        "addr": "太谷",
        "lat": 37.425507,
        "lng": 112.552765
      },
      {
        "name": "魏勲",
        "year": 1565,
        "addr": "陽曲",
        "lat": 37.873753,
        "lng": 112.564827
      },
      {
        "name": "王藻",
        "year": 1568,
        "addr": "清源",
        "lat": 37.557182,
        "lng": 112.508995
      },
      {
        "name": "李憙",
        "year": 1568,
        "addr": "祁縣",
        "lat": 37.353817,
        "lng": 112.3153
      },
      {
        "name": "雙鳳鳴",
        "year": 1571,
        "addr": "文水",
        "lat": 37.436981201,
        "lng": 112.02419281
      },
      {
        "name": "張翰才",
        "year": 1571,
        "addr": "盂縣",
        "lat": 38.090957642,
        "lng": 113.4129715
      },
      {
        "name": "王蔚",
        "year": 1571,
        "addr": "清源",
        "lat": 37.557182,
        "lng": 112.508995
      },
      {
        "name": "田疇",
        "year": 1571,
        "addr": "文水",
        "lat": 37.436981201,
        "lng": 112.02419281
      },
      {
        "name": "王來聘",
        "year": 1571,
        "addr": "壽陽",
        "lat": 37.8867836,
        "lng": 113.1687088
      },
      {
        "name": "段補",
        "year": 1571,
        "addr": "陽曲",
        "lat": 37.873753,
        "lng": 112.564827
      },
      {
        "name": "桑維高",
        "year": 1571,
        "addr": "榆次",
        "lat": 37.678467,
        "lng": 112.744682
      },
      {
        "name": "王儒",
        "year": 1574,
        "addr": "太原府",
        "lat": 37.873748779,
        "lng": 112.56482697
      },
      {
        "name": "郝國章",
        "year": 1574,
        "addr": "陽曲",
        "lat": 37.873753,
        "lng": 112.564827
      },
      {
        "name": "胡載道",
        "year": 1577,
        "addr": "太原府",
        "lat": 37.873748779,
        "lng": 112.56482697
      },
      {
        "name": "馬朝陽",
        "year": 1577,
        "addr": "太原",
        "lat": 37.873748779,
        "lng": 112.56482697
      },
      {
        "name": "安世鳳",
        "year": 1583,
        "addr": "太谷",
        "lat": 37.425507,
        "lng": 112.552765
      },
      {
        "name": "陳震",
        "year": 1583,
        "addr": "壽陽",
        "lat": 37.8867836,
        "lng": 113.1687088
      },
      {
        "name": "馬維駰",
        "year": 1592,
        "addr": "陽曲",
        "lat": 37.873753,
        "lng": 112.564827
      },
      {
        "name": "常茂",
        "year": 1442,
        "addr": "交城",
        "lat": 37.544411,
        "lng": 112.156273
      },
      {
        "name": "王福",
        "year": 1445,
        "addr": "清源",
        "lat": 37.557182,
        "lng": 112.508995
      },
      {
        "name": "張聰",
        "year": 1448,
        "addr": "陽曲",
        "lat": 37.873753,
        "lng": 112.564827
      },
      {
        "name": "郭捍城",
        "year": 1622,
        "addr": "榆次",
        "lat": 37.678467,
        "lng": 112.744682
      },
      {
        "name": "王言",
        "year": 1508,
        "addr": "臨縣",
        "lat": 37.952896,
        "lng": 110.983116
      },
      {
        "name": "王登三",
        "year": 1613,
        "addr": "祁縣",
        "lat": 37.353817,
        "lng": 112.3153
      },
      {
        "name": "王廷諫",
        "year": 1634,
        "addr": "太原府",
        "lat": 37.873748779,
        "lng": 112.56482697
      },
      {
        "name": "王牧",
        "year": 1385,
        "addr": "太谷",
        "lat": 37.425507,
        "lng": 112.552765
      },
      {
        "name": "王宗賢",
        "year": 1598,
        "addr": "清源",
        "lat": 37.557182,
        "lng": 112.508995
      },
      {
        "name": "王凝命",
        "year": 1631,
        "addr": "文水",
        "lat": 37.436981201,
        "lng": 112.02419281
      },
      {
        "name": "王在臺",
        "year": 1613,
        "addr": "文水",
        "lat": 37.436981201,
        "lng": 112.02419281
      },
      {
        "name": "王希增",
        "year": 1388,
        "addr": "靜樂",
        "lat": 38.357658,
        "lng": 111.940109
      },
      {
        "name": "王嘉言",
        "year": 1619,
        "addr": "壽陽",
        "lat": 37.8867836,
        "lng": 113.1687088
      },
      {
        "name": "王卿",
        "year": 1514,
        "addr": "臨縣",
        "lat": 37.952896,
        "lng": 110.983116
      },
      {
        "name": "王毓奇",
        "year": 1643,
        "addr": "清源",
        "lat": 37.557182,
        "lng": 112.508995
      },
      {
        "name": "石文繡",
        "year": 1385,
        "addr": "靜樂",
        "lat": 38.357658,
        "lng": 111.940109
      },
      {
        "name": "石三畏",
        "year": 1619,
        "addr": "太原府",
        "lat": 37.873748779,
        "lng": 112.56482697
      },
      {
        "name": "張三謨",
        "year": 1622,
        "addr": "太原府",
        "lat": 37.873748779,
        "lng": 112.56482697
      },
      {
        "name": "張琦",
        "year": 1424,
        "addr": "盂縣",
        "lat": 38.090957642,
        "lng": 113.4129715
      },
      {
        "name": "張著銘",
        "year": 1616,
        "addr": "陽曲",
        "lat": 37.873753,
        "lng": 112.564827
      },
      {
        "name": "張其緒",
        "year": 1607,
        "addr": "盂縣",
        "lat": 38.090957642,
        "lng": 113.4129715
      },
      {
        "name": "張翰南",
        "year": 1619,
        "addr": "榆次",
        "lat": 37.678467,
        "lng": 112.744682
      },
      {
        "name": "張敬",
        "year": 1404,
        "addr": "陽曲",
        "lat": 37.873753,
        "lng": 112.564827
      },
      {
        "name": "張養",
        "year": 1616,
        "addr": "榆次",
        "lat": 37.678467,
        "lng": 112.744682
      },
      {
        "name": "孫煥",
        "year": 1598,
        "addr": "盂縣",
        "lat": 38.090957642,
        "lng": 113.4129715
      },
      {
        "name": "武文達",
        "year": 1598,
        "addr": "交城",
        "lat": 37.544411,
        "lng": 112.156273
      },
      {
        "name": "喬瑛",
        "year": 1499,
        "addr": "清源",
        "lat": 37.557182,
        "lng": 112.508995
      },
      {
        "name": "任彥棻",
        "year": 1595,
        "addr": "文水",
        "lat": 37.436981201,
        "lng": 112.02419281
      },
      {
        "name": "任彥蘖",
        "year": 1589,
        "addr": "文水",
        "lat": 37.436981201,
        "lng": 112.02419281
      },
      {
        "name": "白鋼",
        "year": 1526,
        "addr": "榆次",
        "lat": 37.678467,
        "lng": 112.744682
      },
      {
        "name": "魏勳",
        "year": 1565,
        "addr": "陽曲",
        "lat": 37.873753,
        "lng": 112.564827
      },
      {
        "name": "吳玉",
        "year": 1622,
        "addr": "壽陽",
        "lat": 37.8867836,
        "lng": 113.1687088
      },
      {
        "name": "寇天與",
        "year": 1526,
        "addr": "榆次",
        "lat": 37.678467,
        "lng": 112.744682
      },
      {
        "name": "寇儉",
        "year": 1496,
        "addr": "榆次",
        "lat": 37.678467,
        "lng": 112.744682
      },
      {
        "name": "李之明",
        "year": 1637,
        "addr": "交城",
        "lat": 37.544411,
        "lng": 112.156273
      },
      {
        "name": "李熹",
        "year": 1568,
        "addr": "祁縣",
        "lat": 37.353817,
        "lng": 112.3153
      },
      {
        "name": "李舉",
        "year": 1493,
        "addr": "河曲",
        "lat": 39.169819,
        "lng": 111.219826
      },
      {
        "name": "李騰霄",
        "year": 1523,
        "addr": "盂縣",
        "lat": 38.090957642,
        "lng": 113.4129715
      },
      {
        "name": "古鏞",
        "year": 1436,
        "addr": "祁縣",
        "lat": 37.353817,
        "lng": 112.3153
      },
      {
        "name": "頡鵬",
        "year": 1622,
        "addr": "祁縣",
        "lat": 37.353817,
        "lng": 112.3153
      },
      {
        "name": "姚鏞",
        "year": 1601,
        "addr": "太原府",
        "lat": 37.873748779,
        "lng": 112.56482697
      },
      {
        "name": "戴運昌",
        "year": 1637,
        "addr": "祁縣",
        "lat": 37.353817,
        "lng": 112.3153
      },
      {
        "name": "韓萬象",
        "year": 1601,
        "addr": "太原",
        "lat": 37.873748779,
        "lng": 112.56482697
      },
      {
        "name": "楊一奇",
        "year": 1523,
        "addr": "交城",
        "lat": 37.544411,
        "lng": 112.156273
      },
      {
        "name": "郝太",
        "year": 1487,
        "addr": "陽曲",
        "lat": 37.873753,
        "lng": 112.564827
      },
      {
        "name": "胡全才",
        "year": 1643,
        "addr": "文水",
        "lat": 37.436981201,
        "lng": 112.02419281
      },
      {
        "name": "趙延慶",
        "year": 1616,
        "addr": "盂縣",
        "lat": 38.090957642,
        "lng": 113.4129715
      },
      {
        "name": "趙宗",
        "year": 1499,
        "addr": "交城",
        "lat": 37.544411,
        "lng": 112.156273
      },
      {
        "name": "曹命新",
        "year": 1598,
        "addr": "交城",
        "lat": 37.544411,
        "lng": 112.156273
      },
      {
        "name": "馬諫",
        "year": 1604,
        "addr": "陽曲",
        "lat": 37.873753,
        "lng": 112.564827
      },
      {
        "name": "劉整",
        "year": 1421,
        "addr": "盂縣",
        "lat": 38.090957642,
        "lng": 113.4129715
      },
      {
        "name": "陳三接",
        "year": 1640,
        "addr": "文水",
        "lat": 37.436981201,
        "lng": 112.02419281
      },
      {
        "name": "陳璧",
        "year": 1502,
        "addr": "太谷",
        "lat": 37.425507,
        "lng": 112.552765
      },
      {
        "name": "周瑋",
        "year": 1643,
        "addr": "榆次",
        "lat": 37.678467,
        "lng": 112.744682
      },
      {
        "name": "段續",
        "year": 1523,
        "addr": "陽曲",
        "lat": 37.873753,
        "lng": 112.564827
      },
      {
        "name": "閻璽",
        "year": 1484,
        "addr": "壽陽",
        "lat": 37.8867836,
        "lng": 113.1687088
      },
      {
        "name": "閻睿",
        "year": 1499,
        "addr": "祁縣",
        "lat": 37.353817,
        "lng": 112.3153
      },
      {
        "name": "桑芸",
        "year": 1640,
        "addr": "榆次",
        "lat": 37.678467,
        "lng": 112.744682
      },
      {
        "name": "俞獻可",
        "year": 1598,
        "addr": "太原府",
        "lat": 37.873748779,
        "lng": 112.56482697
      },
      {
        "name": "鄭宗周",
        "year": 1607,
        "addr": "文水",
        "lat": 37.436981201,
        "lng": 112.02419281
      }
    ]
  },
  {
    "id": 4759,
    "name": "平陽府",
    "count": 152,
    "lat": 36.078041077,
    "lng": 111.51542664,
    "people": [
      {
        "name": "邢讓",
        "year": 1448,
        "addr": "襄陵",
        "lat": 36.023994,
        "lng": 111.396492
      },
      {
        "name": "韓文",
        "year": 1466,
        "addr": "洪洞",
        "lat": 36.259399,
        "lng": 111.682915
      },
      {
        "name": "高邦佐",
        "year": 1595,
        "addr": "襄陵",
        "lat": 36.023994,
        "lng": 111.396492
      },
      {
        "name": "李進",
        "year": 1469,
        "addr": "曲沃",
        "lat": 35.641285,
        "lng": 111.470024
      },
      {
        "name": "亢思謙",
        "year": 1547,
        "addr": "臨汾",
        "lat": 36.078037,
        "lng": 111.515434
      },
      {
        "name": "王泰",
        "year": 1481,
        "addr": "翼城",
        "lat": 35.738762,
        "lng": 111.708443
      },
      {
        "name": "李日強",
        "year": 1565,
        "addr": "曲沃",
        "lat": 35.641285,
        "lng": 111.470024
      },
      {
        "name": "李如松",
        "year": 1553,
        "addr": "洪洞",
        "lat": 36.259399,
        "lng": 111.682915
      },
      {
        "name": "李瓚",
        "year": 1478,
        "addr": "臨汾",
        "lat": 36.078037,
        "lng": 111.515434
      },
      {
        "name": "邢霖",
        "year": 1487,
        "addr": "襄陵",
        "lat": 36.023994,
        "lng": 111.396492
      },
      {
        "name": "胡汝飲",
        "year": 1568,
        "addr": "臨汾",
        "lat": 36.078037,
        "lng": 111.515434
      },
      {
        "name": "晉應槐",
        "year": 1556,
        "addr": "洪洞",
        "lat": 36.259399,
        "lng": 111.682915
      },
      {
        "name": "徐節",
        "year": 1553,
        "addr": "臨汾",
        "lat": 36.078037,
        "lng": 111.515434
      },
      {
        "name": "張潤",
        "year": 1502,
        "addr": "臨汾",
        "lat": 36.078037,
        "lng": 111.515434
      },
      {
        "name": "劉廷臣",
        "year": 1538,
        "addr": "洪洞",
        "lat": 36.259399,
        "lng": 111.682915
      },
      {
        "name": "劉穆",
        "year": 1517,
        "addr": "臨汾",
        "lat": 36.078037,
        "lng": 111.515434
      },
      {
        "name": "仇敬",
        "year": 1371,
        "addr": "曲沃",
        "lat": 35.641285,
        "lng": 111.470024
      },
      {
        "name": "梁明",
        "year": 1457,
        "addr": "臨汾",
        "lat": 36.078037,
        "lng": 111.515434
      },
      {
        "name": "任璽",
        "year": 1460,
        "addr": "太平",
        "lat": 35.813309,
        "lng": 111.274063
      },
      {
        "name": "鄭恭",
        "year": 1464,
        "addr": "曲沃",
        "lat": 35.641285,
        "lng": 111.470024
      },
      {
        "name": "柳演",
        "year": 1466,
        "addr": "平陽府",
        "lat": 36.078041077,
        "lng": 111.51542664
      },
      {
        "name": "董通",
        "year": 1469,
        "addr": "臨汾",
        "lat": 36.078037,
        "lng": 111.515434
      },
      {
        "name": "陳孜",
        "year": 1472,
        "addr": "浮山",
        "lat": 35.967442,
        "lng": 111.842438
      },
      {
        "name": "毛倫",
        "year": 1475,
        "addr": "太平",
        "lat": 35.813309,
        "lng": 111.274063
      },
      {
        "name": "耿文睿",
        "year": 1475,
        "addr": "曲沃",
        "lat": 35.641285,
        "lng": 111.470024
      },
      {
        "name": "荊茂",
        "year": 1478,
        "addr": "臨汾",
        "lat": 36.078037,
        "lng": 111.515434
      },
      {
        "name": "鄭傑",
        "year": 1478,
        "addr": "洪洞",
        "lat": 36.259399,
        "lng": 111.682915
      },
      {
        "name": "王謙",
        "year": 1478,
        "addr": "太平",
        "lat": 35.813309,
        "lng": 111.274063
      },
      {
        "name": "李寅",
        "year": 1400,
        "addr": "臨汾",
        "lat": 36.078037,
        "lng": 111.515434
      },
      {
        "name": "韓士奇",
        "year": 1502,
        "addr": "洪洞",
        "lat": 36.259399,
        "lng": 111.682915
      },
      {
        "name": "張克溫",
        "year": 1505,
        "addr": "臨汾",
        "lat": 36.078037,
        "lng": 111.515434
      },
      {
        "name": "許翔鳳",
        "year": 1511,
        "addr": "洪洞",
        "lat": 36.259399,
        "lng": 111.682915
      },
      {
        "name": "易瓚",
        "year": 1511,
        "addr": "臨汾",
        "lat": 36.078037,
        "lng": 111.515434
      },
      {
        "name": "鄧鉞",
        "year": 1517,
        "addr": "襄陵",
        "lat": 36.023994,
        "lng": 111.396492
      },
      {
        "name": "劉志",
        "year": 1538,
        "addr": "翼城",
        "lat": 35.738762,
        "lng": 111.708443
      },
      {
        "name": "郭維寧",
        "year": 1541,
        "addr": "太平",
        "lat": 35.813309,
        "lng": 111.274063
      },
      {
        "name": "宋文明",
        "year": 1547,
        "addr": "洪洞",
        "lat": 36.259399,
        "lng": 111.682915
      },
      {
        "name": "劉應時",
        "year": 1547,
        "addr": "洪洞",
        "lat": 36.259399,
        "lng": 111.682915
      },
      {
        "name": "李承華",
        "year": 1547,
        "addr": "曲沃",
        "lat": 35.641285,
        "lng": 111.470024
      },
      {
        "name": "王三接",
        "year": 1547,
        "addr": "洪洞",
        "lat": 36.259399,
        "lng": 111.682915
      },
      {
        "name": "任民望",
        "year": 1550,
        "addr": "臨汾",
        "lat": 36.078037,
        "lng": 111.515434
      },
      {
        "name": "段顧言",
        "year": 1550,
        "addr": "臨汾",
        "lat": 36.078037,
        "lng": 111.515434
      },
      {
        "name": "毛鋼",
        "year": 1553,
        "addr": "太平",
        "lat": 35.813309,
        "lng": 111.274063
      },
      {
        "name": "羅尚德",
        "year": 1556,
        "addr": "臨汾",
        "lat": 36.078037,
        "lng": 111.515434
      },
      {
        "name": "史永壽",
        "year": 1556,
        "addr": "翼城",
        "lat": 35.738762,
        "lng": 111.708443
      },
      {
        "name": "史官",
        "year": 1556,
        "addr": "翼城",
        "lat": 35.738762,
        "lng": 111.708443
      },
      {
        "name": "衛淳",
        "year": 1430,
        "addr": "曲沃",
        "lat": 35.641285,
        "lng": 111.470024
      },
      {
        "name": "董文寀",
        "year": 1559,
        "addr": "臨汾",
        "lat": 36.078037,
        "lng": 111.515434
      },
      {
        "name": "邢實",
        "year": 1559,
        "addr": "洪洞",
        "lat": 36.259399,
        "lng": 111.682915
      },
      {
        "name": "賈應元",
        "year": 1562,
        "addr": "臨汾",
        "lat": 36.078037,
        "lng": 111.515434
      },
      {
        "name": "范愛眾",
        "year": 1562,
        "addr": "臨汾",
        "lat": 36.078037,
        "lng": 111.515434
      },
      {
        "name": "王澤",
        "year": 1562,
        "addr": "臨汾",
        "lat": 36.078037,
        "lng": 111.515434
      },
      {
        "name": "段繡",
        "year": 1562,
        "addr": "臨汾",
        "lat": 36.078037,
        "lng": 111.515434
      },
      {
        "name": "陳于階",
        "year": 1562,
        "addr": "臨汾",
        "lat": 36.078037,
        "lng": 111.515434
      },
      {
        "name": "許評",
        "year": 1565,
        "addr": "曲沃",
        "lat": 35.641285,
        "lng": 111.470024
      },
      {
        "name": "楊沐",
        "year": 1565,
        "addr": "臨汾",
        "lat": 36.078037,
        "lng": 111.515434
      },
      {
        "name": "王應吉",
        "year": 1565,
        "addr": "襄陵",
        "lat": 36.023994,
        "lng": 111.396492
      },
      {
        "name": "王體復",
        "year": 1568,
        "addr": "太平",
        "lat": 35.813309,
        "lng": 111.274063
      },
      {
        "name": "李尚思",
        "year": 1568,
        "addr": "曲沃",
        "lat": 35.641285,
        "lng": 111.470024
      },
      {
        "name": "劉樸",
        "year": 1568,
        "addr": "曲沃",
        "lat": 35.641285,
        "lng": 111.470024
      },
      {
        "name": "王大用",
        "year": 1568,
        "addr": "趙城",
        "lat": 36.390411,
        "lng": 111.675247
      },
      {
        "name": "劉守仁",
        "year": 1568,
        "addr": "洪洞",
        "lat": 36.259399,
        "lng": 111.682915
      },
      {
        "name": "霍希夔",
        "year": 1568,
        "addr": "臨汾",
        "lat": 36.078037,
        "lng": 111.515434
      },
      {
        "name": "劉應元",
        "year": 1571,
        "addr": "洪洞",
        "lat": 36.259399,
        "lng": 111.682915
      },
      {
        "name": "燕好爵",
        "year": 1571,
        "addr": "翼城",
        "lat": 35.738762,
        "lng": 111.708443
      },
      {
        "name": "吉可久",
        "year": 1571,
        "addr": "曲沃",
        "lat": 35.641285,
        "lng": 111.470024
      },
      {
        "name": "茹宗舜",
        "year": 1571,
        "addr": "臨汾",
        "lat": 36.078037,
        "lng": 111.515434
      },
      {
        "name": "董光裕",
        "year": 1571,
        "addr": "洪洞",
        "lat": 36.259399,
        "lng": 111.682915
      },
      {
        "name": "李承志",
        "year": 1574,
        "addr": "曲沃",
        "lat": 35.641285,
        "lng": 111.470024
      },
      {
        "name": "張珩",
        "year": 1574,
        "addr": "趙城",
        "lat": 36.390411,
        "lng": 111.675247
      },
      {
        "name": "李大嘉",
        "year": 1574,
        "addr": "曲沃",
        "lat": 35.641285,
        "lng": 111.470024
      },
      {
        "name": "韓應庚",
        "year": 1577,
        "addr": "趙城",
        "lat": 36.390411,
        "lng": 111.675247
      },
      {
        "name": "李弘道",
        "year": 1577,
        "addr": "襄陵",
        "lat": 36.023994,
        "lng": 111.396492
      },
      {
        "name": "呂乾健",
        "year": 1577,
        "addr": "曲沃",
        "lat": 35.641285,
        "lng": 111.470024
      },
      {
        "name": "楊起元",
        "year": 1577,
        "addr": "臨汾",
        "lat": 36.078037,
        "lng": 111.515434
      },
      {
        "name": "李應選",
        "year": 1577,
        "addr": "趙城",
        "lat": 36.390411,
        "lng": 111.675247
      },
      {
        "name": "郭萬里",
        "year": 1580,
        "addr": "太平",
        "lat": 35.813309,
        "lng": 111.274063
      },
      {
        "name": "史學遷",
        "year": 1592,
        "addr": "翼城",
        "lat": 35.738762,
        "lng": 111.708443
      },
      {
        "name": "張庭",
        "year": 1610,
        "addr": "平陽府",
        "lat": 36.078041077,
        "lng": 111.51542664
      },
      {
        "name": "席教事",
        "year": 1643,
        "addr": "臨汾",
        "lat": 36.078037,
        "lng": 111.515434
      },
      {
        "name": "高翀",
        "year": 1385,
        "addr": "翼城",
        "lat": 35.738762,
        "lng": 111.708443
      },
      {
        "name": "郭迪",
        "year": 1385,
        "addr": "臨汾",
        "lat": 36.078037,
        "lng": 111.515434
      },
      {
        "name": "郭祥",
        "year": 1385,
        "addr": "臨汾",
        "lat": 36.078037,
        "lng": 111.515434
      },
      {
        "name": "許日可",
        "year": 1640,
        "addr": "曲沃",
        "lat": 35.641285,
        "lng": 111.470024
      },
      {
        "name": "王家楹",
        "year": 1619,
        "addr": "洪洞",
        "lat": 36.259399,
        "lng": 111.682915
      },
      {
        "name": "王進",
        "year": 1385,
        "addr": "襄陵",
        "lat": 36.023994,
        "lng": 111.396492
      },
      {
        "name": "王則堯",
        "year": 1640,
        "addr": "翼城",
        "lat": 35.738762,
        "lng": 111.708443
      },
      {
        "name": "丁流芳",
        "year": 1616,
        "addr": "翼城",
        "lat": 35.738762,
        "lng": 111.708443
      },
      {
        "name": "晉承寵",
        "year": 1601,
        "addr": "洪洞",
        "lat": 36.259399,
        "lng": 111.682915
      },
      {
        "name": "晉淑抃",
        "year": 1616,
        "addr": "洪洞",
        "lat": 36.259399,
        "lng": 111.682915
      },
      {
        "name": "賈維鑰",
        "year": 1589,
        "addr": "臨汾",
        "lat": 36.078037,
        "lng": 111.515434
      },
      {
        "name": "張耿",
        "year": 1640,
        "addr": "翼城",
        "lat": 35.738762,
        "lng": 111.708443
      },
      {
        "name": "張力",
        "year": 1637,
        "addr": "臨汾",
        "lat": 36.078037,
        "lng": 111.515434
      },
      {
        "name": "張傑",
        "year": 1613,
        "addr": "臨汾",
        "lat": 36.078037,
        "lng": 111.515434
      },
      {
        "name": "張瑩",
        "year": 1421,
        "addr": "岳陽",
        "lat": 36.282902,
        "lng": 111.916923
      },
      {
        "name": "鄧曇",
        "year": 1385,
        "addr": "襄陵",
        "lat": 36.023994,
        "lng": 111.396492
      },
      {
        "name": "翟師雍",
        "year": 1601,
        "addr": "襄陵",
        "lat": 36.023994,
        "lng": 111.396492
      },
      {
        "name": "毛維騶",
        "year": 1601,
        "addr": "太平",
        "lat": 35.813309,
        "lng": 111.274063
      },
      {
        "name": "盧夢麟",
        "year": 1589,
        "addr": "洪洞",
        "lat": 36.259399,
        "lng": 111.682915
      },
      {
        "name": "盧世登",
        "year": 1589,
        "addr": "曲沃",
        "lat": 35.641285,
        "lng": 111.470024
      },
      {
        "name": "衛志",
        "year": 1397,
        "addr": "曲沃",
        "lat": 35.641285,
        "lng": 111.470024
      },
      {
        "name": "柴寅賓",
        "year": 1613,
        "addr": "翼城",
        "lat": 35.738762,
        "lng": 111.708443
      },
      {
        "name": "崔育楩",
        "year": 1634,
        "addr": "襄陵",
        "lat": 36.023994,
        "lng": 111.396492
      },
      {
        "name": "崔允升",
        "year": 1640,
        "addr": "翼城",
        "lat": 35.738762,
        "lng": 111.708443
      },
      {
        "name": "崔矩",
        "year": 1415,
        "addr": "襄陵",
        "lat": 36.023994,
        "lng": 111.396492
      },
      {
        "name": "仇時古",
        "year": 1598,
        "addr": "曲沃",
        "lat": 35.641285,
        "lng": 111.470024
      },
      {
        "name": "仇益",
        "year": 1385,
        "addr": "汾西",
        "lat": 36.650539,
        "lng": 111.562729
      },
      {
        "name": "續旻",
        "year": 1418,
        "addr": "翼城",
        "lat": 35.738762,
        "lng": 111.708443
      },
      {
        "name": "朱昭",
        "year": 1514,
        "addr": "太平",
        "lat": 35.813309,
        "lng": 111.274063
      },
      {
        "name": "白瑜",
        "year": 1595,
        "addr": "翼城",
        "lat": 35.738762,
        "lng": 111.708443
      },
      {
        "name": "白養粹",
        "year": 1604,
        "addr": "翼城",
        "lat": 35.738762,
        "lng": 111.708443
      },
      {
        "name": "寇厚",
        "year": 1418,
        "addr": "臨汾",
        "lat": 36.078037,
        "lng": 111.515434
      },
      {
        "name": "安良澤",
        "year": 1619,
        "addr": "臨汾",
        "lat": 36.078037,
        "lng": 111.515434
      },
      {
        "name": "安惟學",
        "year": 1484,
        "addr": "臨汾",
        "lat": 36.078037,
        "lng": 111.515434
      },
      {
        "name": "宋炳奎",
        "year": 1637,
        "addr": "洪洞",
        "lat": 36.259399,
        "lng": 111.682915
      },
      {
        "name": "梁一龍",
        "year": 1601,
        "addr": "襄陵",
        "lat": 36.023994,
        "lng": 111.396492
      },
      {
        "name": "梁州傑",
        "year": 1631,
        "addr": "襄陵",
        "lat": 36.023994,
        "lng": 111.396492
      },
      {
        "name": "李文會",
        "year": 1526,
        "addr": "趙城",
        "lat": 36.390411,
        "lng": 111.675247
      },
      {
        "name": "李丕著",
        "year": 1637,
        "addr": "曲沃",
        "lat": 35.641285,
        "lng": 111.470024
      },
      {
        "name": "李瑾",
        "year": 1595,
        "addr": "襄陵",
        "lat": 36.023994,
        "lng": 111.396492
      },
      {
        "name": "李建泰",
        "year": 1625,
        "addr": "曲沃",
        "lat": 35.641285,
        "lng": 111.470024
      },
      {
        "name": "李皐",
        "year": 1634,
        "addr": "翼城",
        "lat": 35.738762,
        "lng": 111.708443
      },
      {
        "name": "李浩",
        "year": 1484,
        "addr": "曲沃",
        "lat": 35.641285,
        "lng": 111.470024
      },
      {
        "name": "李沐民",
        "year": 1595,
        "addr": "臨汾",
        "lat": 36.078037,
        "lng": 111.515434
      },
      {
        "name": "李綦昌",
        "year": 1637,
        "addr": "洪洞",
        "lat": 36.259399,
        "lng": 111.682915
      },
      {
        "name": "李鏞",
        "year": 1526,
        "addr": "曲沃",
        "lat": 35.641285,
        "lng": 111.470024
      },
      {
        "name": "靳勉",
        "year": 1404,
        "addr": "曲沃",
        "lat": 35.641285,
        "lng": 111.470024
      },
      {
        "name": "范琮",
        "year": 1415,
        "addr": "汾西",
        "lat": 36.650539,
        "lng": 111.562729
      },
      {
        "name": "韓毅",
        "year": 1385,
        "addr": "曲沃",
        "lat": 35.641285,
        "lng": 111.470024
      },
      {
        "name": "韓一良",
        "year": 1619,
        "addr": "洪洞",
        "lat": 36.259399,
        "lng": 111.682915
      },
      {
        "name": "韓廷偉",
        "year": 1526,
        "addr": "洪洞",
        "lat": 36.259399,
        "lng": 111.682915
      },
      {
        "name": "韓續祖",
        "year": 1625,
        "addr": "洪洞",
        "lat": 36.259399,
        "lng": 111.682915
      },
      {
        "name": "韓接祖",
        "year": 1637,
        "addr": "洪洞",
        "lat": 36.259399,
        "lng": 111.682915
      },
      {
        "name": "韓原善",
        "year": 1607,
        "addr": "趙城",
        "lat": 36.390411,
        "lng": 111.675247
      },
      {
        "name": "葉林",
        "year": 1404,
        "addr": "翼城",
        "lat": 35.738762,
        "lng": 111.708443
      },
      {
        "name": "杜芳",
        "year": 1404,
        "addr": "翼城",
        "lat": 35.738762,
        "lng": 111.708443
      },
      {
        "name": "楊庸",
        "year": 1404,
        "addr": "曲沃",
        "lat": 35.641285,
        "lng": 111.470024
      },
      {
        "name": "趙鐸",
        "year": 1499,
        "addr": "曲沃",
        "lat": 35.641285,
        "lng": 111.470024
      },
      {
        "name": "史起明",
        "year": 1643,
        "addr": "翼城",
        "lat": 35.738762,
        "lng": 111.708443
      },
      {
        "name": "申嘉言",
        "year": 1625,
        "addr": "洪洞",
        "lat": 36.259399,
        "lng": 111.682915
      },
      {
        "name": "暴昭",
        "year": 1385,
        "addr": "浮山",
        "lat": 35.967442,
        "lng": 111.842438
      },
      {
        "name": "田時春",
        "year": 1616,
        "addr": "襄陵",
        "lat": 36.023994,
        "lng": 111.396492
      },
      {
        "name": "呂維寧",
        "year": 1613,
        "addr": "翼城",
        "lat": 35.738762,
        "lng": 111.708443
      },
      {
        "name": "劉守仁",
        "year": 1568,
        "addr": "洪洞",
        "lat": 36.259399,
        "lng": 111.682915
      },
      {
        "name": "劉濬本",
        "year": 1643,
        "addr": "臨汾",
        "lat": 36.078037,
        "lng": 111.515434
      },
      {
        "name": "劉敏",
        "year": 1406,
        "addr": "太平",
        "lat": 35.813309,
        "lng": 111.274063
      },
      {
        "name": "陳王道",
        "year": 1568,
        "addr": "臨汾",
        "lat": 36.078037,
        "lng": 111.515434
      },
      {
        "name": "叚顧言",
        "year": 1550,
        "addr": "臨汾",
        "lat": 36.078037,
        "lng": 111.515434
      },
      {
        "name": "叚燿然",
        "year": 1640,
        "addr": "洪洞",
        "lat": 36.259399,
        "lng": 111.682915
      },
      {
        "name": "錢士聰",
        "year": 1526,
        "addr": "翼城",
        "lat": 35.738762,
        "lng": 111.708443
      },
      {
        "name": "高士望",
        "year": 1613,
        "addr": "襄陵",
        "lat": 36.023994,
        "lng": 111.396492
      },
      {
        "name": "康天爵",
        "year": 1523,
        "addr": "臨汾",
        "lat": 36.078037,
        "lng": 111.515434
      }
    ]
  },
  {
    "id": 4716,
    "name": "澤州",
    "count": 136,
    "lat": 35.504318237,
    "lng": 112.8391571,
    "people": [
      {
        "name": "張銓",
        "year": 1604,
        "addr": "沁水",
        "lat": 35.690399,
        "lng": 112.170128
      },
      {
        "name": "楊砥",
        "year": 1394,
        "addr": "澤州",
        "lat": 35.504318237,
        "lng": 112.8391571
      },
      {
        "name": "原傑",
        "year": 1445,
        "addr": "陽城",
        "lat": 35.490593,
        "lng": 112.417999
      },
      {
        "name": "楊繼宗",
        "year": 1457,
        "addr": "陽城",
        "lat": 35.490593,
        "lng": 112.417999
      },
      {
        "name": "侯璡",
        "year": 1427,
        "addr": "澤州",
        "lat": 35.504318237,
        "lng": 112.8391571
      },
      {
        "name": "段豸",
        "year": 1502,
        "addr": "澤州",
        "lat": 35.504318237,
        "lng": 112.8391571
      },
      {
        "name": "張五典",
        "year": 1592,
        "addr": "沁水",
        "lat": 35.690399,
        "lng": 112.170128
      },
      {
        "name": "楊暄",
        "year": 1640,
        "addr": "高平",
        "lat": 35.792057,
        "lng": 112.919586
      },
      {
        "name": "劉東星",
        "year": 1568,
        "addr": "沁水",
        "lat": 35.690399,
        "lng": 112.170128
      },
      {
        "name": "王國光",
        "year": 1544,
        "addr": "陽城",
        "lat": 35.490593,
        "lng": 112.417999
      },
      {
        "name": "王徵俊",
        "year": 1625,
        "addr": "陽城",
        "lat": 35.490593,
        "lng": 112.417999
      },
      {
        "name": "丁泰運",
        "year": 1640,
        "addr": "澤州",
        "lat": 35.504318237,
        "lng": 112.8391571
      },
      {
        "name": "王玹",
        "year": 1469,
        "addr": "陽城",
        "lat": 35.490593,
        "lng": 112.417999
      },
      {
        "name": "田鐸",
        "year": 1478,
        "addr": "陽城",
        "lat": 35.490593,
        "lng": 112.417999
      },
      {
        "name": "李春芳",
        "year": 1553,
        "addr": "沁水",
        "lat": 35.690399,
        "lng": 112.170128
      },
      {
        "name": "李瀚",
        "year": 1481,
        "addr": "沁水",
        "lat": 35.690399,
        "lng": 112.170128
      },
      {
        "name": "孟春",
        "year": 1496,
        "addr": "澤州",
        "lat": 35.504318237,
        "lng": 112.8391571
      },
      {
        "name": "周希旦",
        "year": 1562,
        "addr": "陽城",
        "lat": 35.490593,
        "lng": 112.417999
      },
      {
        "name": "段正",
        "year": 1466,
        "addr": "澤州",
        "lat": 35.504318237,
        "lng": 112.8391571
      },
      {
        "name": "馬允登",
        "year": 1571,
        "addr": "陵川",
        "lat": 35.778126,
        "lng": 113.277008
      },
      {
        "name": "孫居相",
        "year": 1592,
        "addr": "沁水",
        "lat": 35.690399,
        "lng": 112.170128
      },
      {
        "name": "郭鋆",
        "year": 1532,
        "addr": "高平",
        "lat": 35.792057,
        "lng": 112.919586
      },
      {
        "name": "郭鎜",
        "year": 1535,
        "addr": "高平",
        "lat": 35.792057,
        "lng": 112.919586
      },
      {
        "name": "張光前",
        "year": 1610,
        "addr": "澤州",
        "lat": 35.504318237,
        "lng": 112.8391571
      },
      {
        "name": "張昇",
        "year": 1550,
        "addr": "陽城",
        "lat": 35.490593,
        "lng": 112.417999
      },
      {
        "name": "張愼言",
        "year": 1610,
        "addr": "陽城",
        "lat": 35.490593,
        "lng": 112.417999
      },
      {
        "name": "張養蒙",
        "year": 1577,
        "addr": "澤州",
        "lat": 35.504318237,
        "lng": 112.8391571
      },
      {
        "name": "張璡",
        "year": 1496,
        "addr": "澤州",
        "lat": 35.504318237,
        "lng": 112.8391571
      },
      {
        "name": "常倫",
        "year": 1511,
        "addr": "沁水",
        "lat": 35.690399,
        "lng": 112.170128
      },
      {
        "name": "楊樞",
        "year": 1559,
        "addr": "陽城",
        "lat": 35.490593,
        "lng": 112.417999
      },
      {
        "name": "趙輄",
        "year": 1544,
        "addr": "高平",
        "lat": 35.792057,
        "lng": 112.919586
      },
      {
        "name": "裴宇",
        "year": 1541,
        "addr": "澤州",
        "lat": 35.504318237,
        "lng": 112.8391571
      },
      {
        "name": "劉虞夔",
        "year": 1571,
        "addr": "高平",
        "lat": 35.792057,
        "lng": 112.919586
      },
      {
        "name": "韓君恩",
        "year": 1556,
        "addr": "沁水",
        "lat": 35.690399,
        "lng": 112.170128
      },
      {
        "name": "龐浩",
        "year": 1521,
        "addr": "澤州",
        "lat": 35.504318237,
        "lng": 112.8391571
      },
      {
        "name": "蘇民牧",
        "year": 1565,
        "addr": "高平",
        "lat": 35.792057,
        "lng": 112.919586
      },
      {
        "name": "王中",
        "year": 1371,
        "addr": "沁水",
        "lat": 35.690399,
        "lng": 112.170128
      },
      {
        "name": "王雯",
        "year": 1457,
        "addr": "陽城",
        "lat": 35.490593,
        "lng": 112.417999
      },
      {
        "name": "司福",
        "year": 1460,
        "addr": "澤州",
        "lat": 35.504318237,
        "lng": 112.8391571
      },
      {
        "name": "張瓉",
        "year": 1460,
        "addr": "陵川",
        "lat": 35.778126,
        "lng": 113.277008
      },
      {
        "name": "楊振",
        "year": 1464,
        "addr": "高平",
        "lat": 35.792057,
        "lng": 112.919586
      },
      {
        "name": "李經",
        "year": 1469,
        "addr": "陽城",
        "lat": 35.490593,
        "lng": 112.417999
      },
      {
        "name": "衛邦",
        "year": 1472,
        "addr": "澤州",
        "lat": 35.504318237,
        "lng": 112.8391571
      },
      {
        "name": "李諒",
        "year": 1472,
        "addr": "澤州",
        "lat": 35.504318237,
        "lng": 112.8391571
      },
      {
        "name": "郭定",
        "year": 1475,
        "addr": "高平",
        "lat": 35.792057,
        "lng": 112.919586
      },
      {
        "name": "和暲",
        "year": 1475,
        "addr": "陵川",
        "lat": 35.778126,
        "lng": 113.277008
      },
      {
        "name": "車璽",
        "year": 1478,
        "addr": "澤州",
        "lat": 35.504318237,
        "lng": 112.8391571
      },
      {
        "name": "常軏",
        "year": 1481,
        "addr": "沁水",
        "lat": 35.690399,
        "lng": 112.170128
      },
      {
        "name": "常賜",
        "year": 1493,
        "addr": "沁水",
        "lat": 35.690399,
        "lng": 112.170128
      },
      {
        "name": "武思明",
        "year": 1502,
        "addr": "陵川",
        "lat": 35.778126,
        "lng": 113.277008
      },
      {
        "name": "原軒",
        "year": 1502,
        "addr": "陽城",
        "lat": 35.490593,
        "lng": 112.417999
      },
      {
        "name": "司迪",
        "year": 1517,
        "addr": "澤州",
        "lat": 35.504318237,
        "lng": 112.8391571
      },
      {
        "name": "裴騫",
        "year": 1521,
        "addr": "澤州",
        "lat": 35.504318237,
        "lng": 112.8391571
      },
      {
        "name": "孟雷",
        "year": 1529,
        "addr": "澤州",
        "lat": 35.504318237,
        "lng": 112.8391571
      },
      {
        "name": "鍾鑑",
        "year": 1529,
        "addr": "澤州",
        "lat": 35.504318237,
        "lng": 112.8391571
      },
      {
        "name": "孟霦",
        "year": 1529,
        "addr": "澤州",
        "lat": 35.504318237,
        "lng": 112.8391571
      },
      {
        "name": "鄭鑒",
        "year": 1535,
        "addr": "高平",
        "lat": 35.792057,
        "lng": 112.919586
      },
      {
        "name": "趙繼孟",
        "year": 1535,
        "addr": "澤州",
        "lat": 35.504318237,
        "lng": 112.8391571
      },
      {
        "name": "孟顏",
        "year": 1538,
        "addr": "澤州",
        "lat": 35.504318237,
        "lng": 112.8391571
      },
      {
        "name": "王學柳",
        "year": 1541,
        "addr": "澤州",
        "lat": 35.504318237,
        "lng": 112.8391571
      },
      {
        "name": "李豸",
        "year": 1541,
        "addr": "陽城",
        "lat": 35.490593,
        "lng": 112.417999
      },
      {
        "name": "陳天祐",
        "year": 1544,
        "addr": "澤州",
        "lat": 35.504318237,
        "lng": 112.8391571
      },
      {
        "name": "張雲路",
        "year": 1547,
        "addr": "高平",
        "lat": 35.792057,
        "lng": 112.919586
      },
      {
        "name": "劉崇文",
        "year": 1547,
        "addr": "高平",
        "lat": 35.792057,
        "lng": 112.919586
      },
      {
        "name": "衛心",
        "year": 1550,
        "addr": "陽城",
        "lat": 35.490593,
        "lng": 112.417999
      },
      {
        "name": "牛輗",
        "year": 1550,
        "addr": "高平",
        "lat": 35.792057,
        "lng": 112.919586
      },
      {
        "name": "陳策",
        "year": 1550,
        "addr": "沁水",
        "lat": 35.690399,
        "lng": 112.170128
      },
      {
        "name": "郜大經",
        "year": 1556,
        "addr": "陵川",
        "lat": 35.778126,
        "lng": 113.277008
      },
      {
        "name": "郭東",
        "year": 1556,
        "addr": "高平",
        "lat": 35.792057,
        "lng": 112.919586
      },
      {
        "name": "栗魁周",
        "year": 1559,
        "addr": "陽城",
        "lat": 35.490593,
        "lng": 112.417999
      },
      {
        "name": "李可久",
        "year": 1562,
        "addr": "陽城",
        "lat": 35.490593,
        "lng": 112.417999
      },
      {
        "name": "王淑陵",
        "year": 1565,
        "addr": "陽城",
        "lat": 35.490593,
        "lng": 112.417999
      },
      {
        "name": "常存仁",
        "year": 1565,
        "addr": "高平",
        "lat": 35.792057,
        "lng": 112.919586
      },
      {
        "name": "趙九思",
        "year": 1571,
        "addr": "澤州",
        "lat": 35.504318237,
        "lng": 112.8391571
      },
      {
        "name": "苗煥",
        "year": 1571,
        "addr": "澤州",
        "lat": 35.504318237,
        "lng": 112.8391571
      },
      {
        "name": "張之屏",
        "year": 1574,
        "addr": "沁水",
        "lat": 35.690399,
        "lng": 112.170128
      },
      {
        "name": "楊植",
        "year": 1577,
        "addr": "陽城",
        "lat": 35.490593,
        "lng": 112.417999
      },
      {
        "name": "周盤",
        "year": 1577,
        "addr": "澤州",
        "lat": 35.504318237,
        "lng": 112.8391571
      },
      {
        "name": "陳璨",
        "year": 1577,
        "addr": "高平",
        "lat": 35.792057,
        "lng": 112.919586
      },
      {
        "name": "衛一鳳",
        "year": 1580,
        "addr": "陽城",
        "lat": 35.490593,
        "lng": 112.417999
      },
      {
        "name": "白所知",
        "year": 1583,
        "addr": "陽城",
        "lat": 35.490593,
        "lng": 112.417999
      },
      {
        "name": "李芳先",
        "year": 1583,
        "addr": "沁水",
        "lat": 35.690399,
        "lng": 112.170128
      },
      {
        "name": "田立家",
        "year": 1586,
        "addr": "陽城",
        "lat": 35.490593,
        "lng": 112.417999
      },
      {
        "name": "韓范",
        "year": 1586,
        "addr": "沁水",
        "lat": 35.690399,
        "lng": 112.170128
      },
      {
        "name": "馮養志",
        "year": 1586,
        "addr": "高平",
        "lat": 35.792057,
        "lng": 112.919586
      },
      {
        "name": "郭嗣煥",
        "year": 1592,
        "addr": "高平",
        "lat": 35.792057,
        "lng": 112.919586
      },
      {
        "name": "王家礎",
        "year": 1592,
        "addr": "陽城",
        "lat": 35.490593,
        "lng": 112.417999
      },
      {
        "name": "王晏",
        "year": 1439,
        "addr": "高平",
        "lat": 35.792057,
        "lng": 112.919586
      },
      {
        "name": "李鏞",
        "year": 1448,
        "addr": "沁水",
        "lat": 35.690399,
        "lng": 112.170128
      },
      {
        "name": "郭鑒",
        "year": 1535,
        "addr": "高平",
        "lat": 35.792057,
        "lng": 112.919586
      },
      {
        "name": "王玹",
        "year": 1499,
        "addr": "陽城",
        "lat": 35.490593,
        "lng": 112.417999
      },
      {
        "name": "王廷瓚",
        "year": 1640,
        "addr": "沁水",
        "lat": 35.690399,
        "lng": 112.170128
      },
      {
        "name": "王采",
        "year": 1637,
        "addr": "澤州",
        "lat": 35.504318237,
        "lng": 112.8391571
      },
      {
        "name": "王緒宏",
        "year": 1643,
        "addr": "澤州",
        "lat": 35.504318237,
        "lng": 112.8391571
      },
      {
        "name": "王邦柱",
        "year": 1628,
        "addr": "高平",
        "lat": 35.792057,
        "lng": 112.919586
      },
      {
        "name": "王曰俞",
        "year": 1643,
        "addr": "陽城",
        "lat": 35.490593,
        "lng": 112.417999
      },
      {
        "name": "王錫",
        "year": 1499,
        "addr": "高平",
        "lat": 35.792057,
        "lng": 112.919586
      },
      {
        "name": "王粹",
        "year": 1385,
        "addr": "陽城",
        "lat": 35.490593,
        "lng": 112.417999
      },
      {
        "name": "石鳳臺",
        "year": 1625,
        "addr": "陽城",
        "lat": 35.490593,
        "lng": 112.417999
      },
      {
        "name": "賈之鳳",
        "year": 1598,
        "addr": "陽城",
        "lat": 35.490593,
        "lng": 112.417999
      },
      {
        "name": "張瓚",
        "year": 1460,
        "addr": "陵川",
        "lat": 35.778126,
        "lng": 113.277008
      },
      {
        "name": "張瑃",
        "year": 1643,
        "addr": "陽城",
        "lat": 35.490593,
        "lng": 112.417999
      },
      {
        "name": "張黻",
        "year": 1484,
        "addr": "陽城",
        "lat": 35.490593,
        "lng": 112.417999
      },
      {
        "name": "張凝",
        "year": 1385,
        "addr": "陵川",
        "lat": 35.778126,
        "lng": 113.277008
      },
      {
        "name": "張藝",
        "year": 1404,
        "addr": "沁水",
        "lat": 35.690399,
        "lng": 112.170128
      },
      {
        "name": "張好爵",
        "year": 1514,
        "addr": "陽城",
        "lat": 35.490593,
        "lng": 112.417999
      },
      {
        "name": "張好古",
        "year": 1523,
        "addr": "陽城",
        "lat": 35.490593,
        "lng": 112.417999
      },
      {
        "name": "張鵬雲",
        "year": 1616,
        "addr": "陽城",
        "lat": 35.490593,
        "lng": 112.417999
      },
      {
        "name": "張鈴",
        "year": 1643,
        "addr": "沁水",
        "lat": 35.690399,
        "lng": 112.170128
      },
      {
        "name": "張鋡",
        "year": 1643,
        "addr": "沁水",
        "lat": 35.690399,
        "lng": 112.170128
      },
      {
        "name": "張光縉",
        "year": 1604,
        "addr": "澤州",
        "lat": 35.504318237,
        "lng": 112.8391571
      },
      {
        "name": "張光房",
        "year": 1601,
        "addr": "澤州",
        "lat": 35.504318237,
        "lng": 112.8391571
      },
      {
        "name": "張慎言",
        "year": 1610,
        "addr": "陽城",
        "lat": 35.490593,
        "lng": 112.417999
      },
      {
        "name": "孫鼎相",
        "year": 1598,
        "addr": "沁水",
        "lat": 35.690399,
        "lng": 112.170128
      },
      {
        "name": "毛一言",
        "year": 1526,
        "addr": "澤州",
        "lat": 35.504318237,
        "lng": 112.8391571
      },
      {
        "name": "衛廷憲",
        "year": 1637,
        "addr": "陽城",
        "lat": 35.490593,
        "lng": 112.417999
      },
      {
        "name": "牛從龍",
        "year": 1589,
        "addr": "高平",
        "lat": 35.792057,
        "lng": 112.919586
      },
      {
        "name": "朱廷壻",
        "year": 1643,
        "addr": "陽城",
        "lat": 35.490593,
        "lng": 112.417999
      },
      {
        "name": "解敏",
        "year": 1385,
        "addr": "陽城",
        "lat": 35.490593,
        "lng": 112.417999
      },
      {
        "name": "徐觀瀾",
        "year": 1589,
        "addr": "澤州",
        "lat": 35.504318237,
        "lng": 112.8391571
      },
      {
        "name": "李蕃",
        "year": 1640,
        "addr": "陽城",
        "lat": 35.490593,
        "lng": 112.417999
      },
      {
        "name": "李春茂",
        "year": 1604,
        "addr": "陽城",
        "lat": 35.490593,
        "lng": 112.417999
      },
      {
        "name": "李養蒙",
        "year": 1601,
        "addr": "陽城",
        "lat": 35.490593,
        "lng": 112.417999
      },
      {
        "name": "吉人",
        "year": 1604,
        "addr": "沁水",
        "lat": 35.690399,
        "lng": 112.170128
      },
      {
        "name": "袁宗弼",
        "year": 1385,
        "addr": "陵川",
        "lat": 35.778126,
        "lng": 113.277008
      },
      {
        "name": "韓肫仁",
        "year": 1613,
        "addr": "沁水",
        "lat": 35.690399,
        "lng": 112.170128
      },
      {
        "name": "韓俞",
        "year": 1385,
        "addr": "陽城",
        "lat": 35.490593,
        "lng": 112.417999
      },
      {
        "name": "苗胙士",
        "year": 1622,
        "addr": "澤州",
        "lat": 35.504318237,
        "lng": 112.8391571
      },
      {
        "name": "楊新期",
        "year": 1607,
        "addr": "陽城",
        "lat": 35.490593,
        "lng": 112.417999
      },
      {
        "name": "楊鵬翼",
        "year": 1640,
        "addr": "陽城",
        "lat": 35.490593,
        "lng": 112.417999
      },
      {
        "name": "投正",
        "year": 1466,
        "addr": "澤州",
        "lat": 35.504318237,
        "lng": 112.8391571
      },
      {
        "name": "田家立",
        "year": 1586,
        "addr": "陽城",
        "lat": 35.490593,
        "lng": 112.417999
      },
      {
        "name": "呂黃鐘",
        "year": 1625,
        "addr": "澤州",
        "lat": 35.504318237,
        "lng": 112.8391571
      },
      {
        "name": "閻禧",
        "year": 1634,
        "addr": "沁水",
        "lat": 35.690399,
        "lng": 112.170128
      },
      {
        "name": "鍾錫",
        "year": 1514,
        "addr": "澤州",
        "lat": 35.504318237,
        "lng": 112.8391571
      },
      {
        "name": "尚志",
        "year": 1523,
        "addr": "高平",
        "lat": 35.792057,
        "lng": 112.919586
      }
    ]
  },
  {
    "id": 4771,
    "name": "蒲州",
    "count": 117,
    "lat": 38.682151794,
    "lng": 115.91989899,
    "people": [
      {
        "name": "薛瑄",
        "year": 1421,
        "addr": "河津",
        "lat": 35.587402,
        "lng": 110.697807
      },
      {
        "name": "暢亨",
        "year": 1478,
        "addr": "河津",
        "lat": 35.587402,
        "lng": 110.697807
      },
      {
        "name": "楊博",
        "year": 1529,
        "addr": "蒲州",
        "lat": 38.682151794,
        "lng": 115.91989899
      },
      {
        "name": "楊俊民",
        "year": 1562,
        "addr": "蒲州",
        "lat": 38.682151794,
        "lng": 115.91989899
      },
      {
        "name": "張四維",
        "year": 1553,
        "addr": "蒲州",
        "lat": 38.682151794,
        "lng": 115.91989899
      },
      {
        "name": "張泰徵",
        "year": 1580,
        "addr": "蒲州",
        "lat": 38.682151794,
        "lng": 115.91989899
      },
      {
        "name": "張甲徵",
        "year": 1583,
        "addr": "蒲州",
        "lat": 38.682151794,
        "lng": 115.91989899
      },
      {
        "name": "王崇古",
        "year": 1541,
        "addr": "蒲州",
        "lat": 38.682151794,
        "lng": 115.91989899
      },
      {
        "name": "王謙",
        "year": 1577,
        "addr": "蒲州",
        "lat": 38.682151794,
        "lng": 115.91989899
      },
      {
        "name": "王輪",
        "year": 1538,
        "addr": "蒲州",
        "lat": 38.682151794,
        "lng": 115.91989899
      },
      {
        "name": "何東序",
        "year": 1553,
        "addr": "猗氏",
        "lat": 35.147945,
        "lng": 110.77404
      },
      {
        "name": "何尚賢",
        "year": 1544,
        "addr": "猗氏",
        "lat": 35.147945,
        "lng": 110.77404
      },
      {
        "name": "袁泰",
        "year": 1371,
        "addr": "萬泉",
        "lat": 35.36078,
        "lng": 110.801264
      },
      {
        "name": "秦昂",
        "year": 1496,
        "addr": "蒲州",
        "lat": 38.682151794,
        "lng": 115.91989899
      },
      {
        "name": "張問明",
        "year": 1562,
        "addr": "猗氏",
        "lat": 35.147945,
        "lng": 110.77404
      },
      {
        "name": "馮舜漁",
        "year": 1553,
        "addr": "蒲州",
        "lat": 38.682151794,
        "lng": 115.91989899
      },
      {
        "name": "景溱",
        "year": 1521,
        "addr": "蒲州",
        "lat": 38.682151794,
        "lng": 115.91989899
      },
      {
        "name": "楊元祥",
        "year": 1583,
        "addr": "蒲州",
        "lat": 38.682151794,
        "lng": 115.91989899
      },
      {
        "name": "楊相",
        "year": 1565,
        "addr": "蒲州",
        "lat": 38.682151794,
        "lng": 115.91989899
      },
      {
        "name": "趙三聘",
        "year": 1568,
        "addr": "河津",
        "lat": 35.587402,
        "lng": 110.697807
      },
      {
        "name": "裴紳",
        "year": 1538,
        "addr": "蒲州",
        "lat": 38.682151794,
        "lng": 115.91989899
      },
      {
        "name": "樊冕",
        "year": 1451,
        "addr": "榮河",
        "lat": 35.312033,
        "lng": 110.483235
      },
      {
        "name": "趙用光",
        "year": 1595,
        "addr": "河津",
        "lat": 35.587402,
        "lng": 110.697807
      },
      {
        "name": "尹宗伊",
        "year": 1371,
        "addr": "萬泉",
        "lat": 35.36078,
        "lng": 110.801264
      },
      {
        "name": "薛璘",
        "year": 1457,
        "addr": "河津",
        "lat": 35.587402,
        "lng": 110.697807
      },
      {
        "name": "楊瑩",
        "year": 1460,
        "addr": "蒲州",
        "lat": 38.682151794,
        "lng": 115.91989899
      },
      {
        "name": "薛禥",
        "year": 1464,
        "addr": "河津",
        "lat": 35.587402,
        "lng": 110.697807
      },
      {
        "name": "王廷",
        "year": 1469,
        "addr": "蒲州",
        "lat": 38.682151794,
        "lng": 115.91989899
      },
      {
        "name": "李隆",
        "year": 1472,
        "addr": "河津",
        "lat": 35.587402,
        "lng": 110.697807
      },
      {
        "name": "景佐",
        "year": 1490,
        "addr": "蒲州",
        "lat": 38.682151794,
        "lng": 115.91989899
      },
      {
        "name": "翟敬",
        "year": 1490,
        "addr": "猗氏",
        "lat": 35.147945,
        "lng": 110.77404
      },
      {
        "name": "薛价",
        "year": 1502,
        "addr": "蒲州",
        "lat": 38.682151794,
        "lng": 115.91989899
      },
      {
        "name": "張鵬程",
        "year": 1511,
        "addr": "蒲州",
        "lat": 38.682151794,
        "lng": 115.91989899
      },
      {
        "name": "劉成德",
        "year": 1511,
        "addr": "蒲州",
        "lat": 38.682151794,
        "lng": 115.91989899
      },
      {
        "name": "劉一中",
        "year": 1511,
        "addr": "蒲州",
        "lat": 38.682151794,
        "lng": 115.91989899
      },
      {
        "name": "李潤",
        "year": 1511,
        "addr": "蒲州",
        "lat": 38.682151794,
        "lng": 115.91989899
      },
      {
        "name": "張邦教",
        "year": 1517,
        "addr": "蒲州",
        "lat": 38.682151794,
        "lng": 115.91989899
      },
      {
        "name": "劉一正",
        "year": 1517,
        "addr": "蒲州",
        "lat": 38.682151794,
        "lng": 115.91989899
      },
      {
        "name": "張希尹",
        "year": 1517,
        "addr": "萬泉",
        "lat": 35.36078,
        "lng": 110.801264
      },
      {
        "name": "王光宇",
        "year": 1535,
        "addr": "臨晉",
        "lat": 35.097809,
        "lng": 110.551643
      },
      {
        "name": "王應期",
        "year": 1535,
        "addr": "蒲州",
        "lat": 38.682151794,
        "lng": 115.91989899
      },
      {
        "name": "孫璧",
        "year": 1538,
        "addr": "蒲州",
        "lat": 38.682151794,
        "lng": 115.91989899
      },
      {
        "name": "張廷栢",
        "year": 1544,
        "addr": "蒲州",
        "lat": 38.682151794,
        "lng": 115.91989899
      },
      {
        "name": "崔都",
        "year": 1550,
        "addr": "蒲州",
        "lat": 38.682151794,
        "lng": 115.91989899
      },
      {
        "name": "張問行",
        "year": 1553,
        "addr": "蒲州",
        "lat": 38.682151794,
        "lng": 115.91989899
      },
      {
        "name": "賈仁元",
        "year": 1562,
        "addr": "萬泉",
        "lat": 35.36078,
        "lng": 110.801264
      },
      {
        "name": "任汝亮",
        "year": 1562,
        "addr": "猗氏",
        "lat": 35.147945,
        "lng": 110.77404
      },
      {
        "name": "董汝漢",
        "year": 1565,
        "addr": "萬泉",
        "lat": 35.36078,
        "lng": 110.801264
      },
      {
        "name": "周有光",
        "year": 1571,
        "addr": "榮河",
        "lat": 35.312033,
        "lng": 110.483235
      },
      {
        "name": "李安仁",
        "year": 1571,
        "addr": "萬泉",
        "lat": 35.36078,
        "lng": 110.801264
      },
      {
        "name": "何汝成",
        "year": 1571,
        "addr": "蒲州",
        "lat": 38.682151794,
        "lng": 115.91989899
      },
      {
        "name": "黃策",
        "year": 1571,
        "addr": "蒲州",
        "lat": 38.682151794,
        "lng": 115.91989899
      },
      {
        "name": "楊俊士",
        "year": 1574,
        "addr": "蒲州",
        "lat": 38.682151794,
        "lng": 115.91989899
      },
      {
        "name": "荊州土",
        "year": 1577,
        "addr": "臨晉",
        "lat": 35.097809,
        "lng": 110.551643
      },
      {
        "name": "劉以平",
        "year": 1580,
        "addr": "猗氏",
        "lat": 35.147945,
        "lng": 110.77404
      },
      {
        "name": "張時脩",
        "year": 1586,
        "addr": "蒲州",
        "lat": 38.682151794,
        "lng": 115.91989899
      },
      {
        "name": "李養質",
        "year": 1586,
        "addr": "蒲州",
        "lat": 38.682151794,
        "lng": 115.91989899
      },
      {
        "name": "朱繪",
        "year": 1592,
        "addr": "蒲州",
        "lat": 38.682151794,
        "lng": 115.91989899
      },
      {
        "name": "喬應甲",
        "year": 1592,
        "addr": "猗氏",
        "lat": 35.147945,
        "lng": 110.77404
      },
      {
        "name": "王國瑚",
        "year": 1592,
        "addr": "猗氏",
        "lat": 35.147945,
        "lng": 110.77404
      },
      {
        "name": "杜思望",
        "year": 1592,
        "addr": "猗氏",
        "lat": 35.147945,
        "lng": 110.77404
      },
      {
        "name": "龐尚廉",
        "year": 1616,
        "addr": "河津",
        "lat": 35.587402,
        "lng": 110.697807
      },
      {
        "name": "郭震",
        "year": 1508,
        "addr": "蒲州",
        "lat": 38.682151794,
        "lng": 115.91989899
      },
      {
        "name": "郭之琮",
        "year": 1607,
        "addr": "蒲州",
        "lat": 38.682151794,
        "lng": 115.91989899
      },
      {
        "name": "王應元",
        "year": 1634,
        "addr": "猗氏",
        "lat": 35.147945,
        "lng": 110.77404
      },
      {
        "name": "王珂",
        "year": 1526,
        "addr": "蒲州",
        "lat": 38.682151794,
        "lng": 115.91989899
      },
      {
        "name": "王瑛",
        "year": 1415,
        "addr": "猗氏",
        "lat": 35.147945,
        "lng": 110.77404
      },
      {
        "name": "王鼎新",
        "year": 1619,
        "addr": "臨晉",
        "lat": 35.097809,
        "lng": 110.551643
      },
      {
        "name": "王之采",
        "year": 1598,
        "addr": "蒲州",
        "lat": 38.682151794,
        "lng": 115.91989899
      },
      {
        "name": "王濬",
        "year": 1427,
        "addr": "蒲州",
        "lat": 38.682151794,
        "lng": 115.91989899
      },
      {
        "name": "王槐秀",
        "year": 1607,
        "addr": "蒲州",
        "lat": 38.682151794,
        "lng": 115.91989899
      },
      {
        "name": "王春楨",
        "year": 1607,
        "addr": "猗氏",
        "lat": 35.147945,
        "lng": 110.77404
      },
      {
        "name": "雷一鳳",
        "year": 1628,
        "addr": "蒲州",
        "lat": 38.682151794,
        "lng": 115.91989899
      },
      {
        "name": "賈席宣",
        "year": 1643,
        "addr": "萬泉",
        "lat": 35.36078,
        "lng": 110.801264
      },
      {
        "name": "賈鶴年",
        "year": 1634,
        "addr": "萬泉",
        "lat": 35.36078,
        "lng": 110.801264
      },
      {
        "name": "張應徵",
        "year": 1595,
        "addr": "猗氏",
        "lat": 35.147945,
        "lng": 110.77404
      },
      {
        "name": "張三聘",
        "year": 1589,
        "addr": "蒲州",
        "lat": 38.682151794,
        "lng": 115.91989899
      },
      {
        "name": "張廷柏",
        "year": 1544,
        "addr": "蒲州",
        "lat": 38.682151794,
        "lng": 115.91989899
      },
      {
        "name": "張魁宿",
        "year": 1631,
        "addr": "猗氏",
        "lat": 35.147945,
        "lng": 110.77404
      },
      {
        "name": "張宸極",
        "year": 1625,
        "addr": "河津",
        "lat": 35.587402,
        "lng": 110.697807
      },
      {
        "name": "張斗耀",
        "year": 1625,
        "addr": "蒲州",
        "lat": 38.682151794,
        "lng": 115.91989899
      },
      {
        "name": "張士俊",
        "year": 1601,
        "addr": "猗氏",
        "lat": 35.147945,
        "lng": 110.77404
      },
      {
        "name": "張希夏",
        "year": 1628,
        "addr": "蒲州",
        "lat": 38.682151794,
        "lng": 115.91989899
      },
      {
        "name": "張其實",
        "year": 1616,
        "addr": "蒲州",
        "lat": 38.682151794,
        "lng": 115.91989899
      },
      {
        "name": "張輦",
        "year": 1619,
        "addr": "蒲州",
        "lat": 38.682151794,
        "lng": 115.91989899
      },
      {
        "name": "張時修",
        "year": 1586,
        "addr": "蒲州",
        "lat": 38.682151794,
        "lng": 115.91989899
      },
      {
        "name": "孫達",
        "year": 1385,
        "addr": "猗氏",
        "lat": 35.147945,
        "lng": 110.77404
      },
      {
        "name": "孟時芳",
        "year": 1598,
        "addr": "蒲州",
        "lat": 38.682151794,
        "lng": 115.91989899
      },
      {
        "name": "耿始然",
        "year": 1634,
        "addr": "猗氏",
        "lat": 35.147945,
        "lng": 110.77404
      },
      {
        "name": "朱永康",
        "year": 1643,
        "addr": "蒲州",
        "lat": 38.682151794,
        "lng": 115.91989899
      },
      {
        "name": "宋九齡",
        "year": 1514,
        "addr": "猗氏",
        "lat": 35.147945,
        "lng": 110.77404
      },
      {
        "name": "馮勞謙",
        "year": 1604,
        "addr": "蒲州",
        "lat": 38.682151794,
        "lng": 115.91989899
      },
      {
        "name": "洪世胤",
        "year": 1598,
        "addr": "蒲州",
        "lat": 38.682151794,
        "lng": 115.91989899
      },
      {
        "name": "李嵩",
        "year": 1604,
        "addr": "榮河",
        "lat": 35.312033,
        "lng": 110.483235
      },
      {
        "name": "李紹賢",
        "year": 1622,
        "addr": "蒲州",
        "lat": 38.682151794,
        "lng": 115.91989899
      },
      {
        "name": "李棲鳳",
        "year": 1604,
        "addr": "臨晉",
        "lat": 35.097809,
        "lng": 110.551643
      },
      {
        "name": "荊爾植",
        "year": 1628,
        "addr": "臨晉",
        "lat": 35.097809,
        "lng": 110.551643
      },
      {
        "name": "荊可棟",
        "year": 1628,
        "addr": "猗氏",
        "lat": 35.147945,
        "lng": 110.77404
      },
      {
        "name": "荊祚永",
        "year": 1628,
        "addr": "臨晉",
        "lat": 35.097809,
        "lng": 110.551643
      },
      {
        "name": "荊世爵",
        "year": 1640,
        "addr": "猗氏",
        "lat": 35.147945,
        "lng": 110.77404
      },
      {
        "name": "荊養喬",
        "year": 1595,
        "addr": "臨晉",
        "lat": 35.097809,
        "lng": 110.551643
      },
      {
        "name": "姚昌籙",
        "year": 1622,
        "addr": "臨晉",
        "lat": 35.097809,
        "lng": 110.551643
      },
      {
        "name": "樊景麟",
        "year": 1523,
        "addr": "蒲州",
        "lat": 38.682151794,
        "lng": 115.91989899
      },
      {
        "name": "韓啟泰",
        "year": 1634,
        "addr": "臨晉",
        "lat": 35.097809,
        "lng": 110.551643
      },
      {
        "name": "薛華",
        "year": 1523,
        "addr": "河津",
        "lat": 35.587402,
        "lng": 110.697807
      },
      {
        "name": "薛昌胤",
        "year": 1643,
        "addr": "河津",
        "lat": 35.587402,
        "lng": 110.697807
      },
      {
        "name": "楊進",
        "year": 1619,
        "addr": "蒲州",
        "lat": 38.682151794,
        "lng": 115.91989899
      },
      {
        "name": "楊蕙芳",
        "year": 1637,
        "addr": "蒲州",
        "lat": 38.682151794,
        "lng": 115.91989899
      },
      {
        "name": "楊世芳",
        "year": 1619,
        "addr": "蒲州",
        "lat": 38.682151794,
        "lng": 115.91989899
      },
      {
        "name": "楊中極",
        "year": 1622,
        "addr": "蒲州",
        "lat": 38.682151794,
        "lng": 115.91989899
      },
      {
        "name": "趙馴",
        "year": 1424,
        "addr": "蒲州",
        "lat": 38.682151794,
        "lng": 115.91989899
      },
      {
        "name": "趙煇",
        "year": 1634,
        "addr": "河津",
        "lat": 35.587402,
        "lng": 110.697807
      },
      {
        "name": "史記言",
        "year": 1598,
        "addr": "河津",
        "lat": 35.587402,
        "lng": 110.697807
      },
      {
        "name": "史魯",
        "year": 1508,
        "addr": "蒲州",
        "lat": 38.682151794,
        "lng": 115.91989899
      },
      {
        "name": "馬洙",
        "year": 1589,
        "addr": "蒲州",
        "lat": 38.682151794,
        "lng": 115.91989899
      },
      {
        "name": "劉世俊",
        "year": 1634,
        "addr": "蒲州",
        "lat": 38.682151794,
        "lng": 115.91989899
      },
      {
        "name": "令狐泌",
        "year": 1604,
        "addr": "猗氏",
        "lat": 35.147945,
        "lng": 110.77404
      }
    ]
  },
  {
    "id": 4778,
    "name": "解州",
    "count": 114,
    "lat": 34.911781311,
    "lng": 110.85543823,
    "people": [
      {
        "name": "曹于汴",
        "year": 1592,
        "addr": "安邑",
        "lat": 35.062,
        "lng": 111.042419
      },
      {
        "name": "王國訓",
        "year": 1622,
        "addr": "解州",
        "lat": 34.911781311,
        "lng": 110.85543823
      },
      {
        "name": "王宗舜",
        "year": 1553,
        "addr": "聞喜",
        "lat": 35.357723,
        "lng": 111.217209
      },
      {
        "name": "王明",
        "year": 1580,
        "addr": "解州",
        "lat": 34.911781311,
        "lng": 110.85543823
      },
      {
        "name": "李素",
        "year": 1430,
        "addr": "安邑",
        "lat": 35.062,
        "lng": 111.042419
      },
      {
        "name": "馬騤",
        "year": 1496,
        "addr": "夏縣",
        "lat": 35.137451,
        "lng": 111.220055
      },
      {
        "name": "張芮",
        "year": 1478,
        "addr": "安邑",
        "lat": 35.062,
        "lng": 111.042419
      },
      {
        "name": "楊一魁",
        "year": 1565,
        "addr": "安邑",
        "lat": 35.062,
        "lng": 111.042419
      },
      {
        "name": "趙欽湯",
        "year": 1568,
        "addr": "安邑",
        "lat": 35.062,
        "lng": 111.042419
      },
      {
        "name": "劉翀",
        "year": 1511,
        "addr": "平陸",
        "lat": 34.802203,
        "lng": 111.113324
      },
      {
        "name": "劉敏寬",
        "year": 1577,
        "addr": "安邑",
        "lat": 35.062,
        "lng": 111.042419
      },
      {
        "name": "王哲",
        "year": 1460,
        "addr": "聞喜",
        "lat": 35.357723,
        "lng": 111.217209
      },
      {
        "name": "張璡",
        "year": 1464,
        "addr": "安邑",
        "lat": 35.062,
        "lng": 111.042419
      },
      {
        "name": "張岫",
        "year": 1466,
        "addr": "安邑",
        "lat": 35.062,
        "lng": 111.042419
      },
      {
        "name": "崔縉",
        "year": 1466,
        "addr": "聞喜",
        "lat": 35.357723,
        "lng": 111.217209
      },
      {
        "name": "郝珙",
        "year": 1466,
        "addr": "安邑",
        "lat": 35.062,
        "lng": 111.042419
      },
      {
        "name": "張璲",
        "year": 1469,
        "addr": "安邑",
        "lat": 35.062,
        "lng": 111.042419
      },
      {
        "name": "馬璠",
        "year": 1475,
        "addr": "安邑",
        "lat": 35.062,
        "lng": 111.042419
      },
      {
        "name": "楊縉",
        "year": 1478,
        "addr": "聞喜",
        "lat": 35.357723,
        "lng": 111.217209
      },
      {
        "name": "趙仲輝",
        "year": 1481,
        "addr": "聞喜",
        "lat": 35.357723,
        "lng": 111.217209
      },
      {
        "name": "張隆",
        "year": 1481,
        "addr": "夏縣",
        "lat": 35.137451,
        "lng": 111.220055
      },
      {
        "name": "攴夔",
        "year": 1487,
        "addr": "聞喜",
        "lat": 35.357723,
        "lng": 111.217209
      },
      {
        "name": "馬馭",
        "year": 1493,
        "addr": "夏縣",
        "lat": 35.137451,
        "lng": 111.220055
      },
      {
        "name": "秦誠通",
        "year": 1496,
        "addr": "聞喜",
        "lat": 35.357723,
        "lng": 111.217209
      },
      {
        "name": "張鉞",
        "year": 1502,
        "addr": "夏縣",
        "lat": 35.137451,
        "lng": 111.220055
      },
      {
        "name": "程鵬",
        "year": 1511,
        "addr": "解州",
        "lat": 34.911781311,
        "lng": 110.85543823
      },
      {
        "name": "謝誥",
        "year": 1517,
        "addr": "安邑",
        "lat": 35.062,
        "lng": 111.042419
      },
      {
        "name": "趙九思",
        "year": 1529,
        "addr": "聞喜",
        "lat": 35.357723,
        "lng": 111.217209
      },
      {
        "name": "孫繼先",
        "year": 1532,
        "addr": "安邑",
        "lat": 35.062,
        "lng": 111.042419
      },
      {
        "name": "路天亨",
        "year": 1532,
        "addr": "安邑",
        "lat": 35.062,
        "lng": 111.042419
      },
      {
        "name": "楊獎",
        "year": 1535,
        "addr": "安邑",
        "lat": 35.062,
        "lng": 111.042419
      },
      {
        "name": "劉選",
        "year": 1538,
        "addr": "安邑",
        "lat": 35.062,
        "lng": 111.042419
      },
      {
        "name": "胡志夔",
        "year": 1544,
        "addr": "安邑",
        "lat": 35.062,
        "lng": 111.042419
      },
      {
        "name": "閻望雲",
        "year": 1550,
        "addr": "安邑",
        "lat": 35.062,
        "lng": 111.042419
      },
      {
        "name": "李瑤",
        "year": 1553,
        "addr": "解州",
        "lat": 34.911781311,
        "lng": 110.85543823
      },
      {
        "name": "劉得寬",
        "year": 1553,
        "addr": "安邑",
        "lat": 35.062,
        "lng": 111.042419
      },
      {
        "name": "薛一鶚",
        "year": 1556,
        "addr": "芮城",
        "lat": 34.697308,
        "lng": 110.688294
      },
      {
        "name": "介一清",
        "year": 1556,
        "addr": "解州",
        "lat": 34.911781311,
        "lng": 110.85543823
      },
      {
        "name": "李汝寛",
        "year": 1556,
        "addr": "聞喜",
        "lat": 35.357723,
        "lng": 111.217209
      },
      {
        "name": "王得春",
        "year": 1556,
        "addr": "安邑",
        "lat": 35.062,
        "lng": 111.042419
      },
      {
        "name": "王宇",
        "year": 1562,
        "addr": "安邑",
        "lat": 35.062,
        "lng": 111.042419
      },
      {
        "name": "丁誠",
        "year": 1562,
        "addr": "安邑",
        "lat": 35.062,
        "lng": 111.042419
      },
      {
        "name": "柴宗義",
        "year": 1562,
        "addr": "安邑",
        "lat": 35.062,
        "lng": 111.042419
      },
      {
        "name": "翟繡裳",
        "year": 1562,
        "addr": "聞喜",
        "lat": 35.357723,
        "lng": 111.217209
      },
      {
        "name": "侯居艮",
        "year": 1565,
        "addr": "解州",
        "lat": 34.911781311,
        "lng": 110.85543823
      },
      {
        "name": "侯居坤",
        "year": 1565,
        "addr": "解州",
        "lat": 34.911781311,
        "lng": 110.85543823
      },
      {
        "name": "曹慎",
        "year": 1565,
        "addr": "解州",
        "lat": 34.911781311,
        "lng": 110.85543823
      },
      {
        "name": "孫維清",
        "year": 1565,
        "addr": "解州",
        "lat": 34.911781311,
        "lng": 110.85543823
      },
      {
        "name": "師道立",
        "year": 1568,
        "addr": "平陸",
        "lat": 34.802203,
        "lng": 111.113324
      },
      {
        "name": "解學禮",
        "year": 1568,
        "addr": "安邑",
        "lat": 35.062,
        "lng": 111.042419
      },
      {
        "name": "李尚賓",
        "year": 1568,
        "addr": "夏縣",
        "lat": 35.137451,
        "lng": 111.220055
      },
      {
        "name": "李瑱",
        "year": 1568,
        "addr": "夏縣",
        "lat": 35.137451,
        "lng": 111.220055
      },
      {
        "name": "張雲翱",
        "year": 1574,
        "addr": "安邑",
        "lat": 35.062,
        "lng": 111.042419
      },
      {
        "name": "任養心",
        "year": 1574,
        "addr": "芮城",
        "lat": 34.697308,
        "lng": 110.688294
      },
      {
        "name": "馬崇謙",
        "year": 1577,
        "addr": "安邑",
        "lat": 35.062,
        "lng": 111.042419
      },
      {
        "name": "陳遇文",
        "year": 1577,
        "addr": "安邑",
        "lat": 35.062,
        "lng": 111.042419
      },
      {
        "name": "南邦化",
        "year": 1583,
        "addr": "安邑",
        "lat": 35.062,
        "lng": 111.042419
      },
      {
        "name": "鄭國俊",
        "year": 1583,
        "addr": "聞喜",
        "lat": 35.357723,
        "lng": 111.217209
      },
      {
        "name": "弋鶴",
        "year": 1586,
        "addr": "安邑",
        "lat": 35.062,
        "lng": 111.042419
      },
      {
        "name": "趙標",
        "year": 1586,
        "addr": "解州",
        "lat": 34.911781311,
        "lng": 110.85543823
      },
      {
        "name": "景明",
        "year": 1592,
        "addr": "安邑",
        "lat": 35.062,
        "lng": 111.042419
      },
      {
        "name": "衛儀",
        "year": 1445,
        "addr": "安邑",
        "lat": 35.062,
        "lng": 111.042419
      },
      {
        "name": "王正",
        "year": 1448,
        "addr": "夏縣",
        "lat": 35.137451,
        "lng": 111.220055
      },
      {
        "name": "郭連城",
        "year": 1631,
        "addr": "平陸",
        "lat": 34.802203,
        "lng": 111.113324
      },
      {
        "name": "王礪",
        "year": 1415,
        "addr": "夏縣",
        "lat": 35.137451,
        "lng": 111.220055
      },
      {
        "name": "王紀",
        "year": 1589,
        "addr": "芮城",
        "lat": 34.697308,
        "lng": 110.688294
      },
      {
        "name": "王凝祚",
        "year": 1619,
        "addr": "安邑",
        "lat": 35.062,
        "lng": 111.042419
      },
      {
        "name": "王道成",
        "year": 1643,
        "addr": "安邑",
        "lat": 35.062,
        "lng": 111.042419
      },
      {
        "name": "王鶴齡",
        "year": 1607,
        "addr": "平陸",
        "lat": 34.802203,
        "lng": 111.113324
      },
      {
        "name": "王國祚",
        "year": 1622,
        "addr": "平陸",
        "lat": 34.802203,
        "lng": 111.113324
      },
      {
        "name": "王國楨",
        "year": 1589,
        "addr": "安邑",
        "lat": 35.062,
        "lng": 111.042419
      },
      {
        "name": "張應昌",
        "year": 1598,
        "addr": "解州",
        "lat": 34.911781311,
        "lng": 110.85543823
      },
      {
        "name": "張雲翺",
        "year": 1574,
        "addr": "安邑",
        "lat": 35.062,
        "lng": 111.042419
      },
      {
        "name": "張淳甫",
        "year": 1514,
        "addr": "安邑",
        "lat": 35.062,
        "lng": 111.042419
      },
      {
        "name": "張時亨",
        "year": 1523,
        "addr": "安邑",
        "lat": 35.062,
        "lng": 111.042419
      },
      {
        "name": "張慎學",
        "year": 1637,
        "addr": "夏縣",
        "lat": 35.137451,
        "lng": 111.220055
      },
      {
        "name": "裴君賜",
        "year": 1622,
        "addr": "安邑",
        "lat": 35.062,
        "lng": 111.042419
      },
      {
        "name": "喬廷桂",
        "year": 1643,
        "addr": "解州",
        "lat": 34.911781311,
        "lng": 110.85543823
      },
      {
        "name": "任正斗",
        "year": 1604,
        "addr": "安邑",
        "lat": 35.062,
        "lng": 111.042419
      },
      {
        "name": "任贊化",
        "year": 1622,
        "addr": "聞喜",
        "lat": 35.357723,
        "lng": 111.217209
      },
      {
        "name": "任光統",
        "year": 1607,
        "addr": "芮城",
        "lat": 34.697308,
        "lng": 110.688294
      },
      {
        "name": "吳養源",
        "year": 1607,
        "addr": "安邑",
        "lat": 35.062,
        "lng": 111.042419
      },
      {
        "name": "侯佐",
        "year": 1634,
        "addr": "解州",
        "lat": 34.911781311,
        "lng": 110.85543823
      },
      {
        "name": "侯加采",
        "year": 1589,
        "addr": "解州",
        "lat": 34.911781311,
        "lng": 110.85543823
      },
      {
        "name": "甯三翰",
        "year": 1607,
        "addr": "聞喜",
        "lat": 35.357723,
        "lng": 111.217209
      },
      {
        "name": "宋東璧",
        "year": 1640,
        "addr": "安邑",
        "lat": 35.062,
        "lng": 111.042419
      },
      {
        "name": "祁鶴",
        "year": 1514,
        "addr": "安邑",
        "lat": 35.062,
        "lng": 111.042419
      },
      {
        "name": "李虞夔",
        "year": 1622,
        "addr": "平陸",
        "lat": 34.802203,
        "lng": 111.113324
      },
      {
        "name": "李俸",
        "year": 1595,
        "addr": "聞喜",
        "lat": 35.357723,
        "lng": 111.217209
      },
      {
        "name": "李淮",
        "year": 1514,
        "addr": "聞喜",
        "lat": 35.357723,
        "lng": 111.217209
      },
      {
        "name": "李汝寬",
        "year": 1556,
        "addr": "聞喜",
        "lat": 35.357723,
        "lng": 111.217209
      },
      {
        "name": "李日儼",
        "year": 1622,
        "addr": "安邑",
        "lat": 35.062,
        "lng": 111.042419
      },
      {
        "name": "李國俊",
        "year": 1625,
        "addr": "芮城",
        "lat": 34.697308,
        "lng": 110.688294
      },
      {
        "name": "李佫",
        "year": 1634,
        "addr": "安邑",
        "lat": 35.062,
        "lng": 111.042419
      },
      {
        "name": "姚誠立",
        "year": 1595,
        "addr": "安邑",
        "lat": 35.062,
        "lng": 111.042419
      },
      {
        "name": "萬時俊",
        "year": 1601,
        "addr": "安邑",
        "lat": 35.062,
        "lng": 111.042419
      },
      {
        "name": "樊文",
        "year": 1508,
        "addr": "安邑",
        "lat": 35.062,
        "lng": 111.042419
      },
      {
        "name": "韓之良",
        "year": 1624,
        "addr": "芮城",
        "lat": 34.697308,
        "lng": 110.688294
      },
      {
        "name": "葉震生",
        "year": 1619,
        "addr": "聞喜",
        "lat": 35.357723,
        "lng": 111.217209
      },
      {
        "name": "相世芳",
        "year": 1514,
        "addr": "安邑",
        "lat": 35.062,
        "lng": 111.042419
      },
      {
        "name": "楊一桂",
        "year": 1595,
        "addr": "安邑",
        "lat": 35.062,
        "lng": 111.042419
      },
      {
        "name": "楊雲梯",
        "year": 1628,
        "addr": "解州",
        "lat": 34.911781311,
        "lng": 110.85543823
      },
      {
        "name": "楊炳",
        "year": 1619,
        "addr": "安邑",
        "lat": 35.062,
        "lng": 111.042419
      },
      {
        "name": "曲環",
        "year": 1514,
        "addr": "安邑",
        "lat": 35.062,
        "lng": 111.042419
      },
      {
        "name": "景昉",
        "year": 1595,
        "addr": "安邑",
        "lat": 35.062,
        "lng": 111.042419
      },
      {
        "name": "馬邦瑞",
        "year": 1589,
        "addr": "安邑",
        "lat": 35.062,
        "lng": 111.042419
      },
      {
        "name": "劉席民",
        "year": 1622,
        "addr": "安邑",
        "lat": 35.062,
        "lng": 111.042419
      },
      {
        "name": "劉慶",
        "year": 1499,
        "addr": "芮城",
        "lat": 34.697308,
        "lng": 110.688294
      },
      {
        "name": "劉崇文",
        "year": 1598,
        "addr": "安邑",
        "lat": 35.062,
        "lng": 111.042419
      },
      {
        "name": "劉海",
        "year": 1424,
        "addr": "夏縣",
        "lat": 35.137451,
        "lng": 111.220055
      },
      {
        "name": "周崇義",
        "year": 1508,
        "addr": "聞喜",
        "lat": 35.357723,
        "lng": 111.217209
      },
      {
        "name": "鄭琬",
        "year": 1643,
        "addr": "夏縣",
        "lat": 35.137451,
        "lng": 111.220055
      },
      {
        "name": "高鳴鳳",
        "year": 1628,
        "addr": "安邑",
        "lat": 35.062,
        "lng": 111.042419
      },
      {
        "name": "康四海",
        "year": 1613,
        "addr": "安邑",
        "lat": 35.062,
        "lng": 111.042419
      }
    ]
  },
  {
    "id": 4806,
    "name": "應州",
    "count": 68,
    "lat": 39.56017,
    "lng": 113.1824,
    "people": [
      {
        "name": "王家屏",
        "year": 1568,
        "addr": "山陰",
        "lat": 39.440437,
        "lng": 112.942734
      },
      {
        "name": "朱賡",
        "year": 1568,
        "addr": "山陰",
        "lat": 39.440437,
        "lng": 112.942734
      },
      {
        "name": "吳兌",
        "year": 1559,
        "addr": "山陰",
        "lat": 39.440437,
        "lng": 112.942734
      },
      {
        "name": "王家屛",
        "year": 1568,
        "addr": "山陰",
        "lat": 39.440437,
        "lng": 112.942734
      },
      {
        "name": "石瑁",
        "year": 1433,
        "addr": "應州",
        "lat": 39.56017,
        "lng": 113.1824
      },
      {
        "name": "席杲",
        "year": 1400,
        "addr": "應州",
        "lat": 39.56017,
        "lng": 113.1824
      },
      {
        "name": "王民質",
        "year": 1505,
        "addr": "應州",
        "lat": 39.56017,
        "lng": 113.1824
      },
      {
        "name": "董官",
        "year": 1532,
        "addr": "應州",
        "lat": 39.56017,
        "lng": 113.1824
      },
      {
        "name": "郭民敬",
        "year": 1547,
        "addr": "山陰",
        "lat": 39.440437,
        "lng": 112.942734
      },
      {
        "name": "張雲霖",
        "year": 1550,
        "addr": "應州",
        "lat": 39.56017,
        "lng": 113.1824
      },
      {
        "name": "田蕙",
        "year": 1574,
        "addr": "應州",
        "lat": 39.56017,
        "lng": 113.1824
      },
      {
        "name": "陳美",
        "year": 1592,
        "addr": "山陰",
        "lat": 39.440437,
        "lng": 112.942734
      },
      {
        "name": "朱敬循",
        "year": 1592,
        "addr": "山陰",
        "lat": 39.440437,
        "lng": 112.942734
      },
      {
        "name": "張勉",
        "year": 1439,
        "addr": "應州",
        "lat": 39.56017,
        "lng": 113.1824
      },
      {
        "name": "席恭",
        "year": 1400,
        "addr": "應州",
        "lat": 39.56017,
        "lng": 113.1824
      },
      {
        "name": "章若昌",
        "year": 1604,
        "addr": "山陰",
        "lat": 39.440437,
        "lng": 112.942734
      },
      {
        "name": "郭登庸",
        "year": 1514,
        "addr": "山陰",
        "lat": 39.440437,
        "lng": 112.942734
      },
      {
        "name": "王三俊",
        "year": 1640,
        "addr": "山陰",
        "lat": 39.440437,
        "lng": 112.942734
      },
      {
        "name": "王建中",
        "year": 1598,
        "addr": "山陰",
        "lat": 39.440437,
        "lng": 112.942734
      },
      {
        "name": "王循學",
        "year": 1595,
        "addr": "山陰",
        "lat": 39.440437,
        "lng": 112.942734
      },
      {
        "name": "王袍",
        "year": 1514,
        "addr": "山陰",
        "lat": 39.440437,
        "lng": 112.942734
      },
      {
        "name": "王觀瀛",
        "year": 1643,
        "addr": "山陰",
        "lat": 39.440437,
        "lng": 112.942734
      },
      {
        "name": "王忠陛",
        "year": 1622,
        "addr": "山陰",
        "lat": 39.440437,
        "lng": 112.942734
      },
      {
        "name": "王軾",
        "year": 1514,
        "addr": "山陰",
        "lat": 39.440437,
        "lng": 112.942734
      },
      {
        "name": "王國楨",
        "year": 1538,
        "addr": "山陰",
        "lat": 39.440437,
        "lng": 112.942734
      },
      {
        "name": "王毓仁",
        "year": 1622,
        "addr": "山陰",
        "lat": 39.440437,
        "lng": 112.942734
      },
      {
        "name": "張汝霖",
        "year": 1595,
        "addr": "山陰",
        "lat": 39.440437,
        "lng": 112.942734
      },
      {
        "name": "張思聰",
        "year": 1514,
        "addr": "山陰",
        "lat": 39.440437,
        "lng": 112.942734
      },
      {
        "name": "邢大忠",
        "year": 1622,
        "addr": "山陰",
        "lat": 39.440437,
        "lng": 112.942734
      },
      {
        "name": "尹三聘",
        "year": 1595,
        "addr": "山陰",
        "lat": 39.440437,
        "lng": 112.942734
      },
      {
        "name": "何弘仁",
        "year": 1637,
        "addr": "山陰",
        "lat": 39.440437,
        "lng": 112.942734
      },
      {
        "name": "朱瑞鳳",
        "year": 1595,
        "addr": "山陰",
        "lat": 39.440437,
        "lng": 112.942734
      },
      {
        "name": "朱兆柏",
        "year": 1625,
        "addr": "山陰",
        "lat": 39.440437,
        "lng": 112.942734
      },
      {
        "name": "朱?",
        "year": 1526,
        "addr": "山陰",
        "lat": 39.440437,
        "lng": 112.942734
      },
      {
        "name": "朱錫元",
        "year": 1628,
        "addr": "山陰",
        "lat": 39.440437,
        "lng": 112.942734
      },
      {
        "name": "朱箎",
        "year": 1526,
        "addr": "山陰",
        "lat": 39.440437,
        "lng": 112.942734
      },
      {
        "name": "吳彥",
        "year": 1523,
        "addr": "山陰",
        "lat": 39.440437,
        "lng": 112.942734
      },
      {
        "name": "吳舜",
        "year": 1493,
        "addr": "山陰",
        "lat": 39.440437,
        "lng": 112.942734
      },
      {
        "name": "魯栗",
        "year": 1643,
        "addr": "山陰",
        "lat": 39.440437,
        "lng": 112.942734
      },
      {
        "name": "徐信",
        "year": 1415,
        "addr": "山陰",
        "lat": 39.440437,
        "lng": 112.942734
      },
      {
        "name": "宋運昌",
        "year": 1628,
        "addr": "山陰",
        "lat": 39.440437,
        "lng": 112.942734
      },
      {
        "name": "潘壯",
        "year": 1523,
        "addr": "山陰",
        "lat": 39.440437,
        "lng": 112.942734
      },
      {
        "name": "沈澧",
        "year": 1523,
        "addr": "山陰",
        "lat": 39.440437,
        "lng": 112.942734
      },
      {
        "name": "凌宷",
        "year": 1475,
        "addr": "山陰",
        "lat": 39.440437,
        "lng": 112.942734
      },
      {
        "name": "溫良",
        "year": 1421,
        "addr": "山陰",
        "lat": 39.440437,
        "lng": 112.942734
      },
      {
        "name": "祁仁",
        "year": 1484,
        "addr": "山陰",
        "lat": 39.440437,
        "lng": 112.942734
      },
      {
        "name": "祁熊佳",
        "year": 1640,
        "addr": "山陰",
        "lat": 39.440437,
        "lng": 112.942734
      },
      {
        "name": "李翰臣",
        "year": 1508,
        "addr": "應州",
        "lat": 39.56017,
        "lng": 113.1824
      },
      {
        "name": "蔡宗兖",
        "year": 1517,
        "addr": "山陰",
        "lat": 39.440437,
        "lng": 112.942734
      },