[
  {
    "id": 7700,
    "name": "安慶府",
    "count": 4,
    "lat": 30.512294769,
    "lng": 117.0346756,
    "people": [
      {
        "name": "姚文然",
        "year": 1643,
        "addr": "桐城",
        "lat": 31.052280426,
        "lng": 116.93860626
      },
      {
        "name": "劉餘謨",
        "year": 1643,
        "addr": "懷寧",
        "lat": 30.512294769,
        "lng": 117.0346756
      },
      {
        "name": "阮大鋮",
        "year": 1616,
        "addr": "懷寧",
        "lat": 30.512294769,
        "lng": 117.0346756
      },
      {
        "name": "方拱乾",
        "year": 1628,
        "addr": "桐城",
        "lat": 31.052280426,
        "lng": 116.93860626
      }
    ]
  },
  {
    "id": 7754,
    "name": "徽州府",
    "count": 3,
    "lat": 29.86577034,
    "lng": 118.4339447,
    "people": [
      {
        "name": "方一藻",
        "year": 1622,
        "addr": "歙縣",
        "lat": 29.86577034,
        "lng": 118.4339447
      },
      {
        "name": "汪覲光",
        "year": 1643,
        "addr": "歙縣",
        "lat": 29.86577034,
        "lng": 118.4339447
      },
      {
        "name": "鄭為虹",
        "year": 1643,
        "addr": "歙縣",
        "lat": 29.86577034,
        "lng": 118.4339447
      }
    ]
  },
  {
    "id": 7736,
    "name": "滁州直隸州",
    "count": 2,
    "lat": 32.316993713,
    "lng": 118.30416107,
    "people": [
      {
        "name": "吳國龍",
        "year": 1643,
        "addr": "全椒",
        "lat": 32.09834671,
        "lng": 118.26437378
      },
      {
        "name": "金拱敬",
        "year": 1643,
        "addr": "滁州直隸州直轄地方",
        "lat": 32.316993713,
        "lng": 118.30416107
      }
    ]
  },
  {
    "id": 7694,
    "name": "廬州府",
    "count": 1,
    "lat": 31.864456177,
    "lng": 117.27645874,
    "people": [
      {
        "name": "龔鼎孳",
        "year": 1634,
        "addr": "合肥",
        "lat": 31.864456177,
        "lng": 117.27645874
      }
    ]
  }
]