[
  {
    "id": 6219,
    "name": "桂林府",
    "count": 47,
    "lat": 25.280059814,
    "lng": 110.28626251,
    "people": [
      {
        "name": "呂調陽",
        "year": 1550,
        "addr": "臨桂",
        "lat": 25.28006,
        "lng": 110.286262
      },
      {
        "name": "徐乾",
        "year": 1511,
        "addr": "臨桂",
        "lat": 25.28006,
        "lng": 110.286262
      },
      {
        "name": "張孫繩",
        "year": 1568,
        "addr": "臨桂",
        "lat": 25.28006,
        "lng": 110.286262
      },
      {
        "name": "鄭舜臣",
        "year": 1556,
        "addr": "桂林府",
        "lat": 25.280059814,
        "lng": 110.28626251
      },
      {
        "name": "王砥",
        "year": 1371,
        "addr": "靈川",
        "lat": 25.463203,
        "lng": 110.38369
      },
      {
        "name": "鄭宏",
        "year": 1451,
        "addr": "臨桂",
        "lat": 25.28006,
        "lng": 110.286262
      },
      {
        "name": "黎經",
        "year": 1475,
        "addr": "陽朔",
        "lat": 24.777758,
        "lng": 110.483627
      },
      {
        "name": "朱瑬",
        "year": 1493,
        "addr": "陽朔",
        "lat": 24.777758,
        "lng": 110.483627
      },
      {
        "name": "徐淮",
        "year": 1496,
        "addr": "臨桂",
        "lat": 25.28006,
        "lng": 110.286262
      },
      {
        "name": "楊鏊",
        "year": 1517,
        "addr": "臨桂",
        "lat": 25.28006,
        "lng": 110.286262
      },
      {
        "name": "白濬",
        "year": 1529,
        "addr": "臨桂",
        "lat": 25.28006,
        "lng": 110.286262
      },
      {
        "name": "朱鵠",
        "year": 1538,
        "addr": "陽朔",
        "lat": 24.777758,
        "lng": 110.483627
      },
      {
        "name": "全賜",
        "year": 1541,
        "addr": "靈川",
        "lat": 25.463203,
        "lng": 110.38369
      },
      {
        "name": "王學",
        "year": 1544,
        "addr": "陽朔",
        "lat": 24.777758,
        "lng": 110.483627
      },
      {
        "name": "馬汝松",
        "year": 1544,
        "addr": "靈川",
        "lat": 25.463203,
        "lng": 110.38369
      },
      {
        "name": "宋廷表",
        "year": 1547,
        "addr": "臨桂",
        "lat": 25.28006,
        "lng": 110.286262
      },
      {
        "name": "張言",
        "year": 1547,
        "addr": "臨桂",
        "lat": 25.28006,
        "lng": 110.286262
      },
      {
        "name": "徐可相",
        "year": 1547,
        "addr": "臨桂",
        "lat": 25.28006,
        "lng": 110.286262
      },
      {
        "name": "張守約",
        "year": 1565,
        "addr": "永福",
        "lat": 24.981726,
        "lng": 109.980125
      },
      {
        "name": "秦致恭",
        "year": 1568,
        "addr": "靈川",
        "lat": 25.463203,
        "lng": 110.38369
      },
      {
        "name": "張孫振",
        "year": 1571,
        "addr": "臨桂",
        "lat": 25.28006,
        "lng": 110.286262
      },
      {
        "name": "張文熙",
        "year": 1577,
        "addr": "臨桂",
        "lat": 25.28006,
        "lng": 110.286262
      },
      {
        "name": "洪敷誥",
        "year": 1586,
        "addr": "臨桂",
        "lat": 25.28006,
        "lng": 110.286262
      },
      {
        "name": "周之鼎",
        "year": 1586,
        "addr": "臨桂",
        "lat": 25.28006,
        "lng": 110.286262
      },
      {
        "name": "蕭九成",
        "year": 1448,
        "addr": "義寧",
        "lat": 25.375401,
        "lng": 110.063301
      },
      {
        "name": "廖冔",
        "year": 1517,
        "addr": "臨桂",
        "lat": 25.28006,
        "lng": 110.286262
      },
      {
        "name": "方策",
        "year": 1523,
        "addr": "臨桂",
        "lat": 25.28006,
        "lng": 110.286262
      },
      {
        "name": "唐輝",
        "year": 1385,
        "addr": "興安",
        "lat": 25.613132,
        "lng": 110.665871
      },
      {
        "name": "文敏",
        "year": 1385,
        "addr": "興安",
        "lat": 25.613132,
        "lng": 110.665871
      },
      {
        "name": "王文儒",
        "year": 1526,
        "addr": "臨桂",
        "lat": 25.28006,
        "lng": 110.286262
      },
      {
        "name": "王溥",
        "year": 1385,
        "addr": "臨桂",
        "lat": 25.28006,
        "lng": 110.286262
      },
      {
        "name": "石岳",
        "year": 1385,
        "addr": "陽朔",
        "lat": 24.777758,
        "lng": 110.483627
      },
      {
        "name": "張雲",
        "year": 1514,
        "addr": "臨桂",
        "lat": 25.28006,
        "lng": 110.286262
      },
      {
        "name": "鄧汶",
        "year": 1404,
        "addr": "臨桂",
        "lat": 25.28006,
        "lng": 110.286262
      },
      {
        "name": "傅誠",
        "year": 1406,
        "addr": "臨桂",
        "lat": 25.28006,
        "lng": 110.286262
      },
      {
        "name": "朱流王",
        "year": 1493,
        "addr": "陽朔",
        "lat": 24.777758,
        "lng": 110.483627
      },
      {
        "name": "朱鵬",
        "year": 1523,
        "addr": "陽朔",
        "lat": 24.777758,
        "lng": 110.483627
      },
      {
        "name": "魏暹",
        "year": 1404,
        "addr": "臨桂",
        "lat": 25.28006,
        "lng": 110.286262
      },
      {
        "name": "吳文",
        "year": 1385,
        "addr": "臨桂",
        "lat": 25.28006,
        "lng": 110.286262
      },
      {
        "name": "李膺品",
        "year": 1643,
        "addr": "靈川",
        "lat": 25.463203,
        "lng": 110.38369
      },
      {
        "name": "李迪",
        "year": 1388,
        "addr": "臨桂",
        "lat": 25.28006,
        "lng": 110.286262
      },
      {
        "name": "蘇术",
        "year": 1526,
        "addr": "陽朔",
        "lat": 24.777758,
        "lng": 110.483627
      },
      {
        "name": "莫在聲",
        "year": 1613,
        "addr": "靈川",
        "lat": 25.463203,
        "lng": 110.38369
      },
      {
        "name": "賀敬",
        "year": 1415,
        "addr": "臨桂",
        "lat": 25.28006,
        "lng": 110.286262
      },
      {
        "name": "胡悼",
        "year": 1484,
        "addr": "臨桂",
        "lat": 25.28006,
        "lng": 110.286262
      },
      {
        "name": "屠楷",
        "year": 1523,
        "addr": "臨桂",
        "lat": 25.28006,
        "lng": 110.286262
      },
      {
        "name": "全在滋",
        "year": 1631,
        "addr": "靈川",
        "lat": 25.463203,
        "lng": 110.38369
      }
    ]
  },
  {
    "id": 6229,
    "name": "全州",
    "count": 34,
    "lat": 25.931814194,
    "lng": 111.06500244,
    "people": [
      {
        "name": "蔣昇",
        "year": 1487,
        "addr": "全州",
        "lat": 25.931814194,
        "lng": 111.06500244
      },
      {
        "name": "蔣冕",
        "year": 1487,
        "addr": "全州",
        "lat": 25.931814194,
        "lng": 111.06500244
      },
      {
        "name": "曹學程",
        "year": 1583,
        "addr": "全州",
        "lat": 25.931814194,
        "lng": 111.06500244
      },
      {
        "name": "陳邦修",
        "year": 1535,
        "addr": "全州",
        "lat": 25.931814194,
        "lng": 111.06500244
      },
      {
        "name": "蔣淦",
        "year": 1511,
        "addr": "全州",
        "lat": 25.931814194,
        "lng": 111.06500244
      },
      {
        "name": "陳瑤",
        "year": 1472,
        "addr": "全州",
        "lat": 25.931814194,
        "lng": 111.06500244
      },
      {
        "name": "陳琬",
        "year": 1478,
        "addr": "全州",
        "lat": 25.931814194,
        "lng": 111.06500244
      },
      {
        "name": "蔣昪",
        "year": 1487,
        "addr": "全州",
        "lat": 25.931814194,
        "lng": 111.06500244
      },
      {
        "name": "陳珩",
        "year": 1490,
        "addr": "全州",
        "lat": 25.931814194,
        "lng": 111.06500244
      },
      {
        "name": "唐夔",
        "year": 1490,
        "addr": "全州",
        "lat": 25.931814194,
        "lng": 111.06500244
      },
      {
        "name": "蔣曙",
        "year": 1496,
        "addr": "全州",
        "lat": 25.931814194,
        "lng": 111.06500244
      },
      {
        "name": "蔣賁",
        "year": 1544,
        "addr": "全州",
        "lat": 25.931814194,
        "lng": 111.06500244
      },
      {
        "name": "文希儒",
        "year": 1550,
        "addr": "全州",
        "lat": 25.931814194,
        "lng": 111.06500244
      },
      {
        "name": "蔣焞",
        "year": 1553,
        "addr": "全州",
        "lat": 25.931814194,
        "lng": 111.06500244
      },
      {
        "name": "蔣應期",
        "year": 1553,
        "addr": "全州",
        "lat": 25.931814194,
        "lng": 111.06500244
      },
      {
        "name": "趙孟豪",
        "year": 1556,
        "addr": "全州",
        "lat": 25.931814194,
        "lng": 111.06500244
      },
      {
        "name": "王貽德",
        "year": 1565,
        "addr": "全州",
        "lat": 25.931814194,
        "lng": 111.06500244
      },
      {
        "name": "蔣遵箴",
        "year": 1568,
        "addr": "全州",
        "lat": 25.931814194,
        "lng": 111.06500244
      },
      {
        "name": "伍睿",
        "year": 1571,
        "addr": "全州",
        "lat": 25.931814194,
        "lng": 111.06500244
      },
      {
        "name": "陳蘊",
        "year": 1586,
        "addr": "灌陽",
        "lat": 25.488653,
        "lng": 111.144691
      },
      {
        "name": "蔣之秀",
        "year": 1592,
        "addr": "全州",
        "lat": 25.931814194,
        "lng": 111.06500244
      },
      {
        "name": "謝良瑾",
        "year": 1640,
        "addr": "全州",
        "lat": 25.931814194,
        "lng": 111.06500244
      },
      {
        "name": "張昌胤",
        "year": 1628,
        "addr": "全州",
        "lat": 25.931814194,
        "lng": 111.06500244
      },
      {
        "name": "鄧一鼒",
        "year": 1631,
        "addr": "全州",
        "lat": 25.931814194,
        "lng": 111.06500244
      },
      {
        "name": "徐天鳳",
        "year": 1622,
        "addr": "全州",
        "lat": 25.931814194,
        "lng": 111.06500244
      },
      {
        "name": "李高",
        "year": 1523,
        "addr": "灌陽",
        "lat": 25.488653,
        "lng": 111.144691
      },
      {
        "name": "蕭珪",
        "year": 1385,
        "addr": "全州",
        "lat": 25.931814194,
        "lng": 111.06500244
      },
      {
        "name": "蔣謙",
        "year": 1421,
        "addr": "灌陽",
        "lat": 25.488653,
        "lng": 111.144691
      },
      {
        "name": "蔣士忠",
        "year": 1613,
        "addr": "全州",
        "lat": 25.931814194,
        "lng": 111.06500244
      },
      {
        "name": "蔣彬",
        "year": 1514,
        "addr": "全州",
        "lat": 25.931814194,
        "lng": 111.06500244
      },
      {
        "name": "蔣昇",
        "year": 1487,
        "addr": "全州",
        "lat": 25.931814194,
        "lng": 111.06500244
      },
      {
        "name": "盛興唐",
        "year": 1622,
        "addr": "灌陽",
        "lat": 25.488653,
        "lng": 111.144691
      },
      {
        "name": "陳邦偁",
        "year": 1514,
        "addr": "全州",
        "lat": 25.931814194,
        "lng": 111.06500244
      },
      {
        "name": "陳邦脩",
        "year": 1535,
        "addr": "全州",
        "lat": 25.931814194,
        "lng": 111.06500244
      }
    ]
  },
  {
    "id": 6233,
    "name": "柳州府",
    "count": 32,
    "lat": 24.309989929,
    "lng": 109.40440369,
    "people": [
      {
        "name": "龍文光",
        "year": 1622,
        "addr": "洛容",
        "lat": 24.41452,
        "lng": 109.6091
      },
      {
        "name": "張翀",
        "year": 1553,
        "addr": "馬平",
        "lat": 24.309988,
        "lng": 109.404396
      },
      {
        "name": "李允簡",
        "year": 1538,
        "addr": "融縣",
        "lat": 25.065443,
        "lng": 109.248543
      },
      {
        "name": "王尚學",
        "year": 1538,
        "addr": "馬平",
        "lat": 24.309988,
        "lng": 109.404396
      },
      {
        "name": "唐榮",
        "year": 1496,
        "addr": "融縣",
        "lat": 25.065443,
        "lng": 109.248543
      },
      {
        "name": "徐養正",
        "year": 1541,
        "addr": "馬平",
        "lat": 24.309988,
        "lng": 109.404396
      },
      {
        "name": "藺琦",
        "year": 1481,
        "addr": "馬平",
        "lat": 24.309988,
        "lng": 109.404396
      },
      {
        "name": "郭本",
        "year": 1451,
        "addr": "融縣",
        "lat": 25.065443,
        "lng": 109.248543
      },
      {
        "name": "李芳",
        "year": 1454,
        "addr": "融縣",
        "lat": 25.065443,
        "lng": 109.248543
      },
      {
        "name": "李序",
        "year": 1472,
        "addr": "融縣",
        "lat": 25.065443,
        "lng": 109.248543
      },
      {
        "name": "方溢",
        "year": 1487,
        "addr": "柳城",
        "lat": 24.527336,
        "lng": 109.260117
      },
      {
        "name": "簡輔",
        "year": 1511,
        "addr": "馬平",
        "lat": 24.309988,
        "lng": 109.404396
      },
      {
        "name": "儲良材",
        "year": 1517,
        "addr": "馬平",
        "lat": 24.309988,
        "lng": 109.404396
      },
      {
        "name": "王納講",
        "year": 1550,
        "addr": "融縣",
        "lat": 25.065443,
        "lng": 109.248543
      },
      {
        "name": "莫抑",
        "year": 1553,
        "addr": "馬平",
        "lat": 24.309988,
        "lng": 109.404396
      },
      {
        "name": "佘立",
        "year": 1562,
        "addr": "馬平",
        "lat": 24.309988,
        "lng": 109.404396
      },
      {
        "name": "計謙亨",
        "year": 1565,
        "addr": "馬平",
        "lat": 24.309988,
        "lng": 109.404396
      },
      {
        "name": "莫與齊",
        "year": 1571,
        "addr": "馬平",
        "lat": 24.309988,
        "lng": 109.404396
      },
      {
        "name": "文彬",
        "year": 1404,
        "addr": "柳城",
        "lat": 24.527336,
        "lng": 109.260117
      },
      {
        "name": "計宗道",
        "year": 1499,
        "addr": "馬平",
        "lat": 24.309988,
        "lng": 109.404396
      },
      {
        "name": "王維通",
        "year": 1385,
        "addr": "融縣",
        "lat": 25.065443,
        "lng": 109.248543
      },
      {
        "name": "王啟元",
        "year": 1622,
        "addr": "馬平",
        "lat": 24.309988,
        "lng": 109.404396
      },
      {
        "name": "張宗政",
        "year": 1394,
        "addr": "柳城",
        "lat": 24.527336,
        "lng": 109.260117
      },
      {
        "name": "朱光才",
        "year": 1404,
        "addr": "柳州府",
        "lat": 24.309989929,
        "lng": 109.40440369
      },
      {
        "name": "戴欽",
        "year": 1514,
        "addr": "馬平",
        "lat": 24.309988,
        "lng": 109.404396
      },
      {
        "name": "蕭文",
        "year": 1415,
        "addr": "馬平",
        "lat": 24.309988,
        "lng": 109.404396
      },
      {
        "name": "羅文綱",
        "year": 1589,
        "addr": "馬平",
        "lat": 24.309988,
        "lng": 109.404396
      },
      {
        "name": "羅之鼎",
        "year": 1607,
        "addr": "馬平",
        "lat": 24.309988,
        "lng": 109.404396
      },
      {
        "name": "陳天明",
        "year": 1628,
        "addr": "馬平",
        "lat": 24.309988,
        "lng": 109.404396
      },
      {
        "name": "陳原道",
        "year": 1598,
        "addr": "馬平",
        "lat": 24.309988,
        "lng": 109.404396
      },
      {
        "name": "周琦",
        "year": 1481,
        "addr": "馬平",
        "lat": 24.309988,
        "lng": 109.404396
      },
      {
        "name": "周祖政",
        "year": 1394,
        "addr": "柳城",
        "lat": 24.527336,
        "lng": 109.260117
      }
    ]
  },
  {
    "id": 6274,
    "name": "梧州府",
    "count": 17,
    "lat": 23.48690033,
    "lng": 111.30857086,
    "people": [
      {
        "name": "萬祥",
        "year": 1487,
        "addr": "藤縣",
        "lat": 23.373119,
        "lng": 110.904282
      },
      {
        "name": "歐賢",
        "year": 1451,
        "addr": "蒼梧",
        "lat": 23.486898,
        "lng": 111.308571
      },
      {
        "name": "李棨",
        "year": 1481,
        "addr": "蒼梧",
        "lat": 23.486898,
        "lng": 111.308571
      },
      {
        "name": "陳祿",
        "year": 1490,
        "addr": "懷集",
        "lat": 23.912186,
        "lng": 112.179237
      },
      {
        "name": "蒙惠",
        "year": 1490,
        "addr": "蒼梧",
        "lat": 23.486898,
        "lng": 111.308571
      },
      {
        "name": "黃聚",
        "year": 1490,
        "addr": "藤縣",
        "lat": 23.373119,
        "lng": 110.904282
      },
      {
        "name": "石邦柱",
        "year": 1502,
        "addr": "蒼梧",
        "lat": 23.486898,
        "lng": 111.308571
      },
      {
        "name": "何士麟",
        "year": 1502,
        "addr": "蒼梧",
        "lat": 23.486898,
        "lng": 111.308571
      },
      {
        "name": "陶仕宗",
        "year": 1412,
        "addr": "梧州府",
        "lat": 23.48690033,
        "lng": 111.30857086
      },
      {
        "name": "楊際會",
        "year": 1577,
        "addr": "容縣",
        "lat": 22.863588,
        "lng": 110.551033
      },
      {
        "name": "龔箎",
        "year": 1404,
        "addr": "蒼梧",
        "lat": 23.486898,
        "lng": 111.308571
      },
      {
        "name": "王惟道",
        "year": 1385,
        "addr": "容縣",
        "lat": 22.863588,
        "lng": 110.551033
      },
      {
        "name": "李素",
        "year": 1424,
        "addr": "蒼梧",
        "lat": 23.486898,
        "lng": 111.308571
      },
      {
        "name": "李熙",
        "year": 1385,
        "addr": "蒼梧",
        "lat": 23.486898,
        "lng": 111.308571
      },
      {
        "name": "楊宣",
        "year": 1404,
        "addr": "蒼梧",
        "lat": 23.486898,
        "lng": 111.308571
      },
      {
        "name": "秦時懋",
        "year": 1613,
        "addr": "容縣",
        "lat": 22.863588,
        "lng": 110.551033
      },
      {
        "name": "劉曰乾",
        "year": 1526,
        "addr": "蒼梧",
        "lat": 23.486898,
        "lng": 111.308571
      }
    ]
  },
  {
    "id": 6264,
    "name": "平樂府",
    "count": 12,
    "lat": 24.635730743,
    "lng": 110.64649963,
    "people": [
      {
        "name": "盧貺",
        "year": 1371,
        "addr": "平樂",
        "lat": 24.642347,
        "lng": 110.634869
      },
      {
        "name": "唐世堯",
        "year": 1586,
        "addr": "平樂",
        "lat": 24.642347,
        "lng": 110.634869
      },
      {
        "name": "陶明禮",
        "year": 1586,
        "addr": "平樂",
        "lat": 24.642347,
        "lng": 110.634869
      },
      {
        "name": "張昱",
        "year": 1418,
        "addr": "賀縣",
        "lat": 24.336819,
        "lng": 111.658852
      },
      {
        "name": "鄧試祥",
        "year": 1406,
        "addr": "平樂府",
        "lat": 24.635730743,
        "lng": 110.64649963
      },
      {
        "name": "毛章彥",
        "year": 1595,
        "addr": "富川",
        "lat": 24.824177,
        "lng": 111.265091
      },
      {
        "name": "盧顯",
        "year": 1394,
        "addr": "平樂府",
        "lat": 24.635730743,
        "lng": 110.64649963
      },
      {
        "name": "何廷樞",
        "year": 1616,
        "addr": "富川",
        "lat": 24.824177,
        "lng": 111.265091
      },
      {
        "name": "何廷相",
        "year": 1607,
        "addr": "富川",
        "lat": 24.824177,
        "lng": 111.265091
      },
      {
        "name": "李遠",
        "year": 1404,
        "addr": "平樂府",
        "lat": 24.635730743,
        "lng": 110.64649963
      },
      {
        "name": "莫蘭",
        "year": 1385,
        "addr": "平樂府",
        "lat": 24.635730743,
        "lng": 110.64649963
      },
      {
        "name": "周鳳",
        "year": 1421,
        "addr": "平樂府",
        "lat": 24.635730743,
        "lng": 110.64649963
      }
    ]
  },
  {
    "id": 6248,
    "name": "慶遠府",
    "count": 11,
    "lat": 24.490730286,
    "lng": 108.65588379,
    "people": [
      {
        "name": "馮俊",
        "year": 1460,
        "addr": "宜山",
        "lat": 24.49073,
        "lng": 108.655884
      },
      {
        "name": "韋嵩",
        "year": 1457,
        "addr": "宜山",
        "lat": 24.49073,
        "lng": 108.655884
      },
      {
        "name": "馮良輔",
        "year": 1481,
        "addr": "宜山",
        "lat": 24.49073,
        "lng": 108.655884
      },
      {
        "name": "張烜",
        "year": 1529,
        "addr": "宜山",
        "lat": 24.49073,
        "lng": 108.655884
      },
      {
        "name": "陳學夔",
        "year": 1547,
        "addr": "宜山",
        "lat": 24.49073,
        "lng": 108.655884
      },
      {
        "name": "韋廣",
        "year": 1427,
        "addr": "宜山",
        "lat": 24.49073,
        "lng": 108.655884
      },
      {
        "name": "韋昭",
        "year": 1421,
        "addr": "宜山",
        "lat": 24.49073,
        "lng": 108.655884
      },
      {
        "name": "楊諳",
        "year": 1406,
        "addr": "宜山",
        "lat": 24.49073,
        "lng": 108.655884
      },
      {
        "name": "楊繩武",
        "year": 1631,
        "addr": "宜山",
        "lat": 24.49073,
        "lng": 108.655884
      },
      {
        "name": "喻居善",
        "year": 1394,
        "addr": "宜山",
        "lat": 24.49073,
        "lng": 108.655884
      },
      {
        "name": "陳以仁",
        "year": 1385,
        "addr": "宜山",
        "lat": 24.49073,
        "lng": 108.655884
      }
    ]
  },
  {
    "id": 6286,
    "name": "潯州府",
    "count": 7,
    "lat": 23.394569397,
    "lng": 110.0716629,
    "people": [
      {
        "name": "張澯",
        "year": 1478,
        "addr": "平南",
        "lat": 23.54998,
        "lng": 110.394737
      },
      {
        "name": "李常",
        "year": 1454,
        "addr": "桂平",
        "lat": 23.394571,
        "lng": 110.071663
      },
      {
        "name": "張廷綸",
        "year": 1460,
        "addr": "平南",
        "lat": 23.54998,
        "lng": 110.394737
      },
      {
        "name": "甘振",
        "year": 1496,
        "addr": "桂平",
        "lat": 23.394571,
        "lng": 110.071663
      },
      {
        "name": "蘇時秀",
        "year": 1502,
        "addr": "貴縣",
        "lat": 23.099092,
        "lng": 109.608444
      },
      {
        "name": "龍國祿",
        "year": 1595,
        "addr": "桂平",
        "lat": 23.394571,
        "lng": 110.071663
      },
      {
        "name": "陳河",
        "year": 1404,
        "addr": "平南",
        "lat": 23.54998,
        "lng": 110.394737
      }
    ]
  },
  {
    "id": 6294,
    "name": "橫州",
    "count": 6,
    "lat": 22.692960739,
    "lng": 109.26703644,
    "people": [
      {
        "name": "樂章",
        "year": 1457,
        "addr": "橫州",
        "lat": 22.692960739,
        "lng": 109.26703644
      },
      {
        "name": "任穀",
        "year": 1472,
        "addr": "橫州",
        "lat": 22.692960739,
        "lng": 109.26703644
      },
      {
        "name": "閉悌",
        "year": 1448,
        "addr": "橫州",
        "lat": 22.692960739,
        "lng": 109.26703644
      },
      {
        "name": "任殼",
        "year": 1472,
        "addr": "橫州",
        "lat": 22.692960739,
        "lng": 109.26703644
      },
      {
        "name": "麥聚",
        "year": 1424,
        "addr": "橫州",
        "lat": 22.692960739,
        "lng": 109.26703644
      },
      {
        "name": "陳韶",
        "year": 1406,
        "addr": "橫州",
        "lat": 22.692960739,
        "lng": 109.26703644
      }
    ]
  },
  {
    "id": 6290,
    "name": "南寧府",
    "count": 5,
    "lat": 22.8061409,
    "lng": 108.31207275,
    "people": [
      {
        "name": "鄧洪震",
        "year": 1559,
        "addr": "宣化",
        "lat": 22.806145,
        "lng": 108.312073
      },
      {
        "name": "蕭雲擧",
        "year": 1586,
        "addr": "宣化",
        "lat": 22.806145,
        "lng": 108.312073
      },
      {
        "name": "廖?",
        "year": 1517,
        "addr": "南寧府",
        "lat": 22.8061409,
        "lng": 108.31207275
      },
      {
        "name": "徐可行",
        "year": 1604,
        "addr": "宣化",
        "lat": 22.806145,
        "lng": 108.312073
      },
      {
        "name": "潘琪",
        "year": 1643,
        "addr": "宣化",
        "lat": 22.806145,
        "lng": 108.312073
      }
    ]
  },
  {
    "id": 6280,
    "name": "鬱林州",
    "count": 5,
    "lat": 22.632095,
    "lng": 110.145882,
    "people": [
      {
        "name": "李宏",
        "year": 1451,
        "addr": "北流",
        "lat": 22.714184,
        "lng": 110.347519
      },
      {
        "name": "陳一謙",
        "year": 1556,
        "addr": "鬱林州",
        "lat": 22.632095,
        "lng": 110.145882
      },
      {
        "name": "李文鳳",
        "year": 1404,
        "addr": "北流",
        "lat": 22.714184,
        "lng": 110.347519
      },
      {
        "name": "陳文昌",
        "year": 1404,
        "addr": "北流",
        "lat": 22.714184,
        "lng": 110.347519
      },
      {
        "name": "唐之夔",
        "year": 1604,
        "addr": "鬱林州",
        "lat": 22.632095,
        "lng": 110.145882
      }
    ]
  },
  {
    "id": 6244,
    "name": "賓州",
    "count": 2,
    "lat": 23.24382019,
    "lng": 108.82836914,
    "people": [
      {
        "name": "蒙大賚",
        "year": 1550,
        "addr": "賓州",
        "lat": 23.24382019,
        "lng": 108.82836914
      },
      {
        "name": "舒弘志",
        "year": 1586,
        "addr": "賓州",
        "lat": 23.24382019,
        "lng": 108.82836914
      }
    ]
  },
  {
    "id": 8510,
    "name": "南寧府",
    "count": 1,
    "lat": 22.806144714,
    "lng": 108.31207275,
    "people": [
      {
        "name": "潘琪",
        "year": 1643,
        "addr": "宣化",
        "lat": 22.806144714,
        "lng": 108.31207275
      }
    ]
  },
  {
    "id": 6245,
    "name": "賓州",
    "count": 1,
    "lat": 23.24382019,
    "lng": 108.82836914,
    "people": [
      {
        "name": "舒應龍",
        "year": 1562,
        "addr": "賓州",
        "lat": 23.24382019,
        "lng": 108.82836914
      }
    ]
  },
  {
    "id": 6332,
    "name": "上下凍州",
    "count": 1,
    "lat": 22.38974762,
    "lng": 106.69547272,
    "people": [
      {
        "name": "鄧宗孔",
        "year": 1562,
        "addr": "崇善",
        "lat": 22.420197,
        "lng": 107.355057
      }
    ]
  },
  {
    "id": 6241,
    "name": "象州",
    "count": 1,
    "lat": 23.958059311,
    "lng": 109.68245697,
    "people": [
      {
        "name": "傅敬",
        "year": 1418,
        "addr": "象州",
        "lat": 23.958059311,
        "lng": 109.68245697
      }
    ]
  }
]