[
  {
    "id": 4413,
    "name": "保定府",
    "count": 205,
    "lat": 38.855701447,
    "lng": 115.50209045,
    "people": [
      {
        "name": "楊繼盛",
        "year": 1547,
        "addr": "容城",
        "lat": 39.051655,
        "lng": 115.865715
      },
      {
        "name": "閻鳴泰",
        "year": 1598,
        "addr": "清苑",
        "lat": 38.855701,
        "lng": 115.50209
      },
      {
        "name": "宋傑",
        "year": 1430,
        "addr": "定興",
        "lat": 39.269592,
        "lng": 115.774193
      },
      {
        "name": "楊瓚",
        "year": 1424,
        "addr": "蠡縣",
        "lat": 38.490063,
        "lng": 115.5747
      },
      {
        "name": "劉吉",
        "year": 1448,
        "addr": "博野",
        "lat": 38.457569,
        "lng": 115.459084
      },
      {
        "name": "朱英",
        "year": 1481,
        "addr": "博野",
        "lat": 38.457569,
        "lng": 115.459084
      },
      {
        "name": "傅珪",
        "year": 1487,
        "addr": "清苑",
        "lat": 38.855701,
        "lng": 115.50209
      },
      {
        "name": "韓文",
        "year": 1457,
        "addr": "新城",
        "lat": 39.245949,
        "lng": 115.987564
      },
      {
        "name": "袁宗儒",
        "year": 1508,
        "addr": "雄縣",
        "lat": 38.97588,
        "lng": 116.092705
      },
      {
        "name": "張羅俊",
        "year": 1643,
        "addr": "清苑",
        "lat": 38.855701,
        "lng": 115.50209
      },
      {
        "name": "王世琇",
        "year": 1637,
        "addr": "清苑",
        "lat": 38.855701,
        "lng": 115.50209
      },
      {
        "name": "鄭洛",
        "year": 1556,
        "addr": "安肅",
        "lat": 39.019436,
        "lng": 115.657387
      },
      {
        "name": "張羅彥",
        "year": 1628,
        "addr": "清苑",
        "lat": 38.855701,
        "lng": 115.50209
      },
      {
        "name": "金毓峒",
        "year": 1634,
        "addr": "完縣",
        "lat": 38.833225,
        "lng": 115.123581
      },
      {
        "name": "丁鳳",
        "year": 1487,
        "addr": "蠡縣",
        "lat": 38.490063,
        "lng": 115.5747
      },
      {
        "name": "王寅",
        "year": 1481,
        "addr": "容城",
        "lat": 39.051655,
        "lng": 115.865715
      },
      {
        "name": "王堯封",
        "year": 1505,
        "addr": "定興",
        "lat": 39.269592,
        "lng": 115.774193
      },
      {
        "name": "邢雲路",
        "year": 1580,
        "addr": "安肅",
        "lat": 39.019436,
        "lng": 115.657387
      },
      {
        "name": "吳檟",
        "year": 1464,
        "addr": "博野",
        "lat": 38.457569,
        "lng": 115.459084
      },
      {
        "name": "孟淮",
        "year": 1454,
        "addr": "博野",
        "lat": 38.457569,
        "lng": 115.459084
      },
      {
        "name": "孟鑑",
        "year": 1433,
        "addr": "博野",
        "lat": 38.457569,
        "lng": 115.459084
      },
      {
        "name": "侯瓚",
        "year": 1454,
        "addr": "雄縣",
        "lat": 38.97588,
        "lng": 116.092705
      },
      {
        "name": "高燿",
        "year": 1535,
        "addr": "清苑",
        "lat": 38.855701,
        "lng": 115.50209
      },
      {
        "name": "鹿善繼",
        "year": 1613,
        "addr": "定興",
        "lat": 39.269592,
        "lng": 115.774193
      },
      {
        "name": "曹文衡",
        "year": 1616,
        "addr": "唐縣",
        "lat": 38.741493,
        "lng": 114.969154
      },
      {
        "name": "張𦐿",
        "year": 1521,
        "addr": "完縣",
        "lat": 38.833225,
        "lng": 115.123581
      },
      {
        "name": "張謙",
        "year": 1466,
        "addr": "清苑",
        "lat": 38.855701,
        "lng": 115.50209
      },
      {
        "name": "崔三畏",
        "year": 1529,
        "addr": "蠡縣",
        "lat": 38.490063,
        "lng": 115.5747
      },
      {
        "name": "馮貫",
        "year": 1464,
        "addr": "蠡縣",
        "lat": 38.490063,
        "lng": 115.5747
      },
      {
        "name": "寗擧",
        "year": 1490,
        "addr": "新城",
        "lat": 39.245949,
        "lng": 115.987564
      },
      {
        "name": "楊宣",
        "year": 1454,
        "addr": "新城",
        "lat": 39.245949,
        "lng": 115.987564
      },
      {
        "name": "楊潭",
        "year": 1487,
        "addr": "新城",
        "lat": 39.245949,
        "lng": 115.987564
      },
      {
        "name": "劉乾",
        "year": 1538,
        "addr": "唐縣",
        "lat": 38.741493,
        "lng": 114.969154
      },
      {
        "name": "劉瑀",
        "year": 1466,
        "addr": "蠡縣",
        "lat": 38.490063,
        "lng": 115.5747
      },
      {
        "name": "胡黻",
        "year": 1371,
        "addr": "容城",
        "lat": 39.051655,
        "lng": 115.865715
      },
      {
        "name": "薛大昉",
        "year": 1371,
        "addr": "保定府",
        "lat": 38.855701447,
        "lng": 115.50209045
      },
      {
        "name": "李觀",
        "year": 1451,
        "addr": "唐縣",
        "lat": 38.741493,
        "lng": 114.969154
      },
      {
        "name": "高宗本",
        "year": 1454,
        "addr": "雄縣",
        "lat": 38.97588,
        "lng": 116.092705
      },
      {
        "name": "崔忠",
        "year": 1454,
        "addr": "新城",
        "lat": 39.245949,
        "lng": 115.987564
      },
      {
        "name": "趙章",
        "year": 1454,
        "addr": "清苑",
        "lat": 38.855701,
        "lng": 115.50209
      },
      {
        "name": "袁潔",
        "year": 1457,
        "addr": "滿城",
        "lat": 38.947723,
        "lng": 115.31562
      },
      {
        "name": "劉琛",
        "year": 1460,
        "addr": "唐縣",
        "lat": 38.741493,
        "lng": 114.969154
      },
      {
        "name": "李進",
        "year": 1464,
        "addr": "清苑",
        "lat": 38.855701,
        "lng": 115.50209
      },
      {
        "name": "曹銓",
        "year": 1464,
        "addr": "滿城",
        "lat": 38.947723,
        "lng": 115.31562
      },
      {
        "name": "李鳴鳳",
        "year": 1464,
        "addr": "定興",
        "lat": 39.269592,
        "lng": 115.774193
      },
      {
        "name": "南鵬",
        "year": 1466,
        "addr": "滿城",
        "lat": 38.947723,
        "lng": 115.31562
      },
      {
        "name": "王琮",
        "year": 1466,
        "addr": "清苑",
        "lat": 38.855701,
        "lng": 115.50209
      },
      {
        "name": "劉吉和",
        "year": 1466,
        "addr": "容城",
        "lat": 39.051655,
        "lng": 115.865715
      },
      {
        "name": "孫中",
        "year": 1469,
        "addr": "新城",
        "lat": 39.245949,
        "lng": 115.987564
      },
      {
        "name": "孟瀛",
        "year": 1472,
        "addr": "博野",
        "lat": 38.457569,
        "lng": 115.459084
      },
      {
        "name": "陳福",
        "year": 1472,
        "addr": "新城",
        "lat": 39.245949,
        "lng": 115.987564
      },
      {
        "name": "國志虞",
        "year": 1472,
        "addr": "安肅",
        "lat": 39.019436,
        "lng": 115.657387
      },
      {
        "name": "劉瓚",
        "year": 1475,
        "addr": "清苑",
        "lat": 38.855701,
        "lng": 115.50209
      },
      {
        "name": "趙琮",
        "year": 1475,
        "addr": "清苑",
        "lat": 38.855701,
        "lng": 115.50209
      },
      {
        "name": "張貫",
        "year": 1475,
        "addr": "蠡縣",
        "lat": 38.490063,
        "lng": 115.5747
      },
      {
        "name": "張勛",
        "year": 1475,
        "addr": "完縣",
        "lat": 38.833225,
        "lng": 115.123581
      },
      {
        "name": "徐鵬",
        "year": 1478,
        "addr": "清苑",
        "lat": 38.855701,
        "lng": 115.50209
      },
      {
        "name": "趙寬",
        "year": 1478,
        "addr": "清苑",
        "lat": 38.855701,
        "lng": 115.50209
      },
      {
        "name": "李增",
        "year": 1478,
        "addr": "保定府",
        "lat": 38.855701447,
        "lng": 115.50209045
      },
      {
        "name": "侯觀",
        "year": 1478,
        "addr": "雄縣",
        "lat": 38.97588,
        "lng": 116.092705
      },
      {
        "name": "胡昂",
        "year": 1481,
        "addr": "定興",
        "lat": 39.269592,
        "lng": 115.774193
      },
      {
        "name": "韓春",
        "year": 1481,
        "addr": "蠡縣",
        "lat": 38.490063,
        "lng": 115.5747
      },
      {
        "name": "王凱",
        "year": 1490,
        "addr": "蠡縣",
        "lat": 38.490063,
        "lng": 115.5747
      },
      {
        "name": "楊滋",
        "year": 1490,
        "addr": "定興",
        "lat": 39.269592,
        "lng": 115.774193
      },
      {
        "name": "馮蘭",
        "year": 1493,
        "addr": "蠡縣",
        "lat": 38.490063,
        "lng": 115.5747
      },
      {
        "name": "張宦",
        "year": 1493,
        "addr": "完縣",
        "lat": 38.833225,
        "lng": 115.123581
      },
      {
        "name": "冉繼志",
        "year": 1493,
        "addr": "蠡縣",
        "lat": 38.490063,
        "lng": 115.5747
      },
      {
        "name": "李世亨",
        "year": 1493,
        "addr": "容城",
        "lat": 39.051655,
        "lng": 115.865715
      },
      {
        "name": "劉汝為",
        "year": 1496,
        "addr": "唐縣",
        "lat": 38.741493,
        "lng": 114.969154
      },
      {
        "name": "鄭陽",
        "year": 1496,
        "addr": "安肅",
        "lat": 39.019436,
        "lng": 115.657387
      },
      {
        "name": "董鑄",
        "year": 1502,
        "addr": "安肅",
        "lat": 39.019436,
        "lng": 115.657387
      },
      {
        "name": "劉舉",
        "year": 1505,
        "addr": "完縣",
        "lat": 38.833225,
        "lng": 115.123581
      },
      {
        "name": "石宗太",
        "year": 1505,
        "addr": "清苑",
        "lat": 38.855701,
        "lng": 115.50209
      },
      {
        "name": "張楷",
        "year": 1511,
        "addr": "清苑",
        "lat": 38.855701,
        "lng": 115.50209
      },
      {
        "name": "南壽",
        "year": 1517,
        "addr": "滿城",
        "lat": 38.947723,
        "lng": 115.31562
      },
      {
        "name": "劉熇",
        "year": 1521,
        "addr": "完縣",
        "lat": 38.833225,
        "lng": 115.123581
      },
      {
        "name": "張勑",
        "year": 1529,
        "addr": "完縣",
        "lat": 38.833225,
        "lng": 115.123581
      },
      {
        "name": "劉璽",
        "year": 1532,
        "addr": "唐縣",
        "lat": 38.741493,
        "lng": 114.969154
      },
      {
        "name": "何思",
        "year": 1532,
        "addr": "雄縣",
        "lat": 38.97588,
        "lng": 116.092705
      },
      {
        "name": "趙允亨",
        "year": 1532,
        "addr": "安肅",
        "lat": 39.019436,
        "lng": 115.657387
      },
      {
        "name": "張惟一",
        "year": 1538,
        "addr": "安肅",
        "lat": 39.019436,
        "lng": 115.657387
      },
      {
        "name": "李廷松",
        "year": 1538,
        "addr": "安肅",
        "lat": 39.019436,
        "lng": 115.657387
      },
      {
        "name": "朱尚文",
        "year": 1538,
        "addr": "新城",
        "lat": 39.245949,
        "lng": 115.987564
      },
      {
        "name": "唐時",
        "year": 1538,
        "addr": "雄縣",
        "lat": 38.97588,
        "lng": 116.092705
      },
      {
        "name": "坑進良",
        "year": 1538,
        "addr": "安肅",
        "lat": 39.019436,
        "lng": 115.657387
      },
      {
        "name": "陰標",
        "year": 1541,
        "addr": "容城",
        "lat": 39.051655,
        "lng": 115.865715
      },
      {
        "name": "崔峩",
        "year": 1541,
        "addr": "新城",
        "lat": 39.245949,
        "lng": 115.987564
      },
      {
        "name": "趙宸",
        "year": 1544,
        "addr": "定興",
        "lat": 39.269592,
        "lng": 115.774193
      },
      {
        "name": "宋登",
        "year": 1550,
        "addr": "定興",
        "lat": 39.269592,
        "lng": 115.774193
      },
      {
        "name": "王汝安",
        "year": 1550,
        "addr": "雄縣",
        "lat": 38.97588,
        "lng": 116.092705
      },
      {
        "name": "樊鍾岱",
        "year": 1550,
        "addr": "清苑",
        "lat": 38.855701,
        "lng": 115.50209
      },
      {
        "name": "楊得春",
        "year": 1550,
        "addr": "清苑",
        "lat": 38.855701,
        "lng": 115.50209
      },
      {
        "name": "魏濟民",
        "year": 1553,
        "addr": "定興",
        "lat": 39.269592,
        "lng": 115.774193
      },
      {
        "name": "徐行",
        "year": 1553,
        "addr": "博野",
        "lat": 38.457569,
        "lng": 115.459084
      },
      {
        "name": "甕蕙",
        "year": 1556,
        "addr": "安肅",
        "lat": 39.019436,
        "lng": 115.657387
      },
      {
        "name": "左鈞",
        "year": 1556,
        "addr": "唐縣",
        "lat": 38.741493,
        "lng": 114.969154
      },
      {
        "name": "陳善道",
        "year": 1556,
        "addr": "蠡縣",
        "lat": 38.490063,
        "lng": 115.5747
      },
      {
        "name": "王闐",
        "year": 1559,
        "addr": "清苑",
        "lat": 38.855701,
        "lng": 115.50209
      },
      {
        "name": "郭天祿",
        "year": 1559,
        "addr": "定興",
        "lat": 39.269592,
        "lng": 115.774193
      },
      {
        "name": "平康裕",
        "year": 1559,
        "addr": "新城",
        "lat": 39.245949,
        "lng": 115.987564
      },
      {
        "name": "馬文學",
        "year": 1559,
        "addr": "雄縣",
        "lat": 38.97588,
        "lng": 116.092705
      },
      {
        "name": "王汝梅",
        "year": 1562,
        "addr": "安肅",
        "lat": 39.019436,
        "lng": 115.657387
      },
      {
        "name": "劉寅",
        "year": 1562,
        "addr": "博野",
        "lat": 38.457569,
        "lng": 115.459084
      },
      {
        "name": "王軒",
        "year": 1565,
        "addr": "清苑",
        "lat": 38.855701,
        "lng": 115.50209
      },
      {
        "name": "許大亨",
        "year": 1565,
        "addr": "安肅",
        "lat": 39.019436,
        "lng": 115.657387
      },
      {
        "name": "劉堯卿",
        "year": 1565,
        "addr": "清苑",
        "lat": 38.855701,
        "lng": 115.50209
      },
      {
        "name": "宋豸",
        "year": 1565,
        "addr": "容城",
        "lat": 39.051655,
        "lng": 115.865715
      },
      {
        "name": "何玉德",
        "year": 1565,
        "addr": "雄縣",
        "lat": 38.97588,
        "lng": 116.092705
      },
      {
        "name": "韋以誠",
        "year": 1568,
        "addr": "定興",
        "lat": 39.269592,
        "lng": 115.774193
      },
      {
        "name": "王詔",
        "year": 1568,
        "addr": "博野",
        "lat": 38.457569,
        "lng": 115.459084
      },
      {
        "name": "胡汝欽",
        "year": 1568,
        "addr": "定興",
        "lat": 39.269592,
        "lng": 115.774193
      },
      {
        "name": "張綸",
        "year": 1571,
        "addr": "清苑",
        "lat": 38.855701,
        "lng": 115.50209
      },
      {
        "name": "王開",
        "year": 1574,
        "addr": "清苑",
        "lat": 38.855701,
        "lng": 115.50209
      },
      {
        "name": "鄭材",
        "year": 1574,
        "addr": "安肅",
        "lat": 39.019436,
        "lng": 115.657387
      },
      {
        "name": "田時秀",
        "year": 1574,
        "addr": "完縣",
        "lat": 38.833225,
        "lng": 115.123581
      },
      {
        "name": "劉騰霄",
        "year": 1574,
        "addr": "安肅",
        "lat": 39.019436,
        "lng": 115.657387
      },
      {
        "name": "徐聯芳",
        "year": 1577,
        "addr": "博野",
        "lat": 38.457569,
        "lng": 115.459084
      },
      {
        "name": "金銓",
        "year": 1580,
        "addr": "完縣",
        "lat": 38.833225,
        "lng": 115.123581
      },
      {
        "name": "鹿久徵",
        "year": 1580,
        "addr": "定興",
        "lat": 39.269592,
        "lng": 115.774193
      },
      {
        "name": "張棟",
        "year": 1580,
        "addr": "安肅",
        "lat": 39.019436,
        "lng": 115.657387
      },
      {
        "name": "劉道亨",
        "year": 1586,
        "addr": "新城",
        "lat": 39.245949,
        "lng": 115.987564
      },
      {
        "name": "陳所見",
        "year": 1586,
        "addr": "定興",
        "lat": 39.269592,
        "lng": 115.774193
      },
      {
        "name": "楊繼先",
        "year": 1586,
        "addr": "定興",
        "lat": 39.269592,
        "lng": 115.774193
      },
      {
        "name": "蔡夢齊",
        "year": 1592,
        "addr": "定興",
        "lat": 39.269592,
        "lng": 115.774193
      },
      {
        "name": "張篤敬",
        "year": 1592,
        "addr": "新城",
        "lat": 39.245949,
        "lng": 115.987564
      },
      {
        "name": "王象節",
        "year": 1592,
        "addr": "新城",
        "lat": 39.245949,
        "lng": 115.987564
      },
      {
        "name": "陳士章",
        "year": 1610,
        "addr": "保定府",
        "lat": 38.855701447,
        "lng": 115.50209045
      },
      {
        "name": "王凱",
        "year": 1442,
        "addr": "慶都",
        "lat": 38.705265,
        "lng": 115.133423
      },
      {
        "name": "方廉",
        "year": 1541,
        "addr": "新城",
        "lat": 39.245949,
        "lng": 115.987564
      },
      {
        "name": "甕幼金",
        "year": 1589,
        "addr": "安肅",
        "lat": 39.019436,
        "lng": 115.657387
      },
      {
        "name": "郭存謙",
        "year": 1607,
        "addr": "雄縣",
        "lat": 38.97588,
        "lng": 116.092705
      },
      {
        "name": "施信",
        "year": 1424,
        "addr": "蠡縣",
        "lat": 38.490063,
        "lng": 115.5747
      },
      {
        "name": "王延陶",
        "year": 1643,
        "addr": "清苑",
        "lat": 38.855701,
        "lng": 115.50209
      },
      {
        "name": "王喬棟",
        "year": 1625,
        "addr": "雄縣",
        "lat": 38.97588,
        "lng": 116.092705
      },
      {
        "name": "王行健",
        "year": 1619,
        "addr": "蠡縣",
        "lat": 38.490063,
        "lng": 115.5747
      },
      {
        "name": "王允修",
        "year": 1523,
        "addr": "容城",
        "lat": 39.051655,
        "lng": 115.865715
      },
      {
        "name": "王德明",
        "year": 1508,
        "addr": "清苑",
        "lat": 38.855701,
        "lng": 115.50209
      },
      {
        "name": "王象雲",
        "year": 1625,
        "addr": "新城",
        "lat": 39.245949,
        "lng": 115.987564
      },
      {
        "name": "王象斗",
        "year": 1595,
        "addr": "新城",
        "lat": 39.245949,
        "lng": 115.987564
      },
      {
        "name": "王象恆",
        "year": 1595,
        "addr": "新城",
        "lat": 39.245949,
        "lng": 115.987564
      },
      {
        "name": "王家賓",
        "year": 1604,
        "addr": "定興",
        "lat": 39.269592,
        "lng": 115.774193
      },
      {
        "name": "王之都",
        "year": 1595,
        "addr": "新城",
        "lat": 39.245949,
        "lng": 115.987564
      },
      {
        "name": "王宗義",
        "year": 1595,
        "addr": "蠡縣",
        "lat": 38.490063,
        "lng": 115.5747
      },
      {
        "name": "王沼",
        "year": 1526,
        "addr": "安肅",
        "lat": 39.019436,
        "lng": 115.657387
      },
      {
        "name": "王明善",
        "year": 1619,
        "addr": "新城",
        "lat": 39.245949,
        "lng": 115.987564
      },
      {
        "name": "王與胤",
        "year": 1628,
        "addr": "新城",
        "lat": 39.245949,
        "lng": 115.987564
      },
      {
        "name": "王興",
        "year": 1595,
        "addr": "博野",
        "lat": 38.457569,
        "lng": 115.459084
      },
      {
        "name": "王闐",
        "year": 1549,
        "addr": "清苑",
        "lat": 38.855701,
        "lng": 115.50209
      },
      {
        "name": "石麟",
        "year": 1508,
        "addr": "完縣",
        "lat": 38.833225,
        "lng": 115.123581
      },
      {
        "name": "石宗大",
        "year": 1505,
        "addr": "清苑",
        "lat": 38.855701,
        "lng": 115.50209
      },
      {
        "name": "賈鴻洙",
        "year": 1616,
        "addr": "清苑",
        "lat": 38.855701,
        "lng": 115.50209
      },
      {
        "name": "璩光嶽",
        "year": 1604,
        "addr": "新城",
        "lat": 39.245949,
        "lng": 115.987564
      },
      {
        "name": "張雲奇",
        "year": 1640,
        "addr": "新城",
        "lat": 39.245949,
        "lng": 115.987564
      },
      {
        "name": "張洙",
        "year": 1499,
        "addr": "唐縣",
        "lat": 38.741493,
        "lng": 114.969154
      },
      {
        "name": "張大武",
        "year": 1604,
        "addr": "雄縣",
        "lat": 38.97588,
        "lng": 116.092705
      },
      {
        "name": "張哲",
        "year": 1424,
        "addr": "蠡縣",
        "lat": 38.490063,
        "lng": 115.5747
      },
      {
        "name": "張敕",
        "year": 1529,
        "addr": "完縣",
        "lat": 38.833225,
        "lng": 115.123581
      },
      {
        "name": "張邦政",
        "year": 1589,
        "addr": "滿城",
        "lat": 38.947723,
        "lng": 115.31562
      },
      {
        "name": "張鵬飛",
        "year": 1415,
        "addr": "完縣",
        "lat": 38.833225,
        "lng": 115.123581
      },
      {
        "name": "張居",
        "year": 1625,
        "addr": "清苑",
        "lat": 38.855701,
        "lng": 115.50209
      },
      {
        "name": "張鐩",
        "year": 1622,
        "addr": "安肅",
        "lat": 39.019436,
        "lng": 115.657387
      },
      {
        "name": "孫從度",
        "year": 1628,
        "addr": "清苑",
        "lat": 38.855701,
        "lng": 115.50209
      },
      {
        "name": "孫恭",
        "year": 1499,
        "addr": "博野",
        "lat": 38.457569,
        "lng": 115.459084
      },
      {
        "name": "鄧澄",
        "year": 1604,
        "addr": "新城",
        "lat": 39.245949,
        "lng": 115.987564
      },
      {
        "name": "鄧義",
        "year": 1411,
        "addr": "新城",
        "lat": 39.245949,
        "lng": 115.987564
      },
      {
        "name": "尹洗",
        "year": 1622,
        "addr": "安肅",
        "lat": 39.019436,
        "lng": 115.657387
      },
      {
        "name": "耿庭柏",
        "year": 1592,
        "addr": "新城",
        "lat": 39.245949,
        "lng": 115.987564
      },
      {
        "name": "耿好仁",
        "year": 1607,
        "addr": "定興",
        "lat": 39.269592,
        "lng": 115.774193
      },
      {
        "name": "耿鳴雷",
        "year": 1598,
        "addr": "新城",
        "lat": 39.245949,
        "lng": 115.987564
      },
      {
        "name": "師雅助",
        "year": 1625,
        "addr": "安肅",
        "lat": 39.019436,
        "lng": 115.657387
      },
      {
        "name": "魏彥昭",
        "year": 1499,
        "addr": "容城",
        "lat": 39.051655,
        "lng": 115.865715
      },
      {
        "name": "魏昂",
        "year": 1499,
        "addr": "定興",
        "lat": 39.269592,
        "lng": 115.774193
      },
      {
        "name": "侯泰",
        "year": 1484,
        "addr": "雄縣",
        "lat": 38.97588,
        "lng": 116.092705
      },
      {
        "name": "甯舉",
        "year": 1490,
        "addr": "新城",
        "lat": 39.245949,
        "lng": 115.987564
      },
      {
        "name": "宋圭",
        "year": 1523,
        "addr": "新城",
        "lat": 39.245949,
        "lng": 115.987564
      },
      {
        "name": "馮顯",
        "year": 1499,
        "addr": "安肅",
        "lat": 39.019436,
        "lng": 115.657387
      },
      {
        "name": "梁應澤",
        "year": 1595,
        "addr": "清苑",
        "lat": 38.855701,
        "lng": 115.50209
      },
      {
        "name": "梁見孟",
        "year": 1589,
        "addr": "安肅",
        "lat": 39.019436,
        "lng": 115.657387
      },
      {
        "name": "梁炳",
        "year": 1613,
        "addr": "容城",
        "lat": 39.051655,
        "lng": 115.865715
      },
      {
        "name": "過周謀",
        "year": 1628,
        "addr": "新城",
        "lat": 39.245949,
        "lng": 115.987564
      },
      {
        "name": "涂國鼎",
        "year": 1607,
        "addr": "新城",
        "lat": 39.245949,
        "lng": 115.987564
      },
      {
        "name": "李天篤",
        "year": 1640,
        "addr": "雄縣",
        "lat": 38.97588,
        "lng": 116.092705
      },
      {
        "name": "李緯",
        "year": 1508,
        "addr": "唐縣",
        "lat": 38.741493,
        "lng": 114.969154
      },
      {
        "name": "李自滋",
        "year": 1628,
        "addr": "博野",
        "lat": 38.457569,
        "lng": 115.459084
      },
      {
        "name": "李淑世",
        "year": 1616,
        "addr": "安肅",
        "lat": 39.019436,
        "lng": 115.657387
      },
      {
        "name": "李運",
        "year": 1421,
        "addr": "唐縣",
        "lat": 38.741493,
        "lng": 114.969154
      },
      {
        "name": "袁噩",
        "year": 1643,
        "addr": "滿城",
        "lat": 38.947723,
        "lng": 115.31562
      },
      {
        "name": "袁璞",
        "year": 1415,
        "addr": "新城",
        "lat": 39.245949,
        "lng": 115.987564
      },
      {
        "name": "范文淑",
        "year": 1628,
        "addr": "定興",
        "lat": 39.269592,
        "lng": 115.774193
      },
      {
        "name": "蔣範化",
        "year": 1628,
        "addr": "蠡縣",
        "lat": 38.490063,
        "lng": 115.5747
      },
      {
        "name": "蘇琰",
        "year": 1499,
        "addr": "雄縣",
        "lat": 38.97588,
        "lng": 116.092705
      },
      {
        "name": "樊鐘岱",
        "year": 1550,
        "addr": "清苑",
        "lat": 38.855701,
        "lng": 115.50209
      },
      {
        "name": "史?",
        "year": 1622,
        "addr": "清苑",
        "lat": 38.855701,
        "lng": 115.50209
      },
      {
        "name": "田蘭",
        "year": 1508,
        "addr": "清苑",
        "lat": 38.855701,
        "lng": 115.50209
      },
      {
        "name": "畢昭",
        "year": 1499,
        "addr": "新城",
        "lat": 39.245949,
        "lng": 115.987564
      },
      {
        "name": "呂翕邚",
        "year": 1640,
        "addr": "清苑",
        "lat": 38.855701,
        "lng": 115.50209
      },
      {
        "name": "劉不盈",
        "year": 1595,
        "addr": "清苑",
        "lat": 38.855701,
        "lng": 115.50209
      },
      {
        "name": "劉廷芳",
        "year": 1595,
        "addr": "蠡縣",
        "lat": 38.490063,
        "lng": 115.5747
      },
      {
        "name": "劉徽",
        "year": 1616,
        "addr": "清苑",
        "lat": 38.855701,
        "lng": 115.50209
      },
      {
        "name": "劉曉卿",
        "year": 1565,
        "addr": "清苑",
        "lat": 38.855701,
        "lng": 115.50209
      },
      {
        "name": "陳采",
        "year": 1598,
        "addr": "清苑",
        "lat": 38.855701,
        "lng": 115.50209
      },
      {
        "name": "周偉",
        "year": 1514,
        "addr": "新城",
        "lat": 39.245949,
        "lng": 115.987564
      },
      {
        "name": "巴思明",
        "year": 1514,
        "addr": "新城",
        "lat": 39.245949,
        "lng": 115.987564
      },
      {
        "name": "邸鵬",
        "year": 1388,
        "addr": "唐縣",
        "lat": 38.741493,
        "lng": 114.969154
      },
      {
        "name": "鄭問玄",
        "year": 1640,
        "addr": "新城",
        "lat": 39.245949,
        "lng": 115.987564
      }
    ]
  },
  {
    "id": 4381,
    "name": "順天府",
    "count": 178,
    "lat": 39.931430817,
    "lng": 116.36799622,
    "people": [
      {
        "name": "徐有貞",
        "year": 1433,
        "addr": "宛平",
        "lat": 39.931427002,
        "lng": 116.36800385
      },
      {
        "name": "劉餘祐",
        "year": 1616,
        "addr": "宛平",
        "lat": 39.931427002,
        "lng": 116.36800385
      },
      {
        "name": "朱之馮",
        "year": 1625,
        "addr": "大興",
        "lat": 39.931427002,
        "lng": 116.36800385
      },
      {
        "name": "劉璉",
        "year": 1445,
        "addr": "大興",
        "lat": 39.931427002,
        "lng": 116.36800385
      },
      {
        "name": "劉機",
        "year": 1478,
        "addr": "大興",
        "lat": 39.931427002,
        "lng": 116.36800385
      },
      {
        "name": "李侃",
        "year": 1442,
        "addr": "東安",
        "lat": 26.332001,
        "lng": 111.222092
      },
      {
        "name": "李震",
        "year": 1436,
        "addr": "宛平",
        "lat": 39.931427002,
        "lng": 116.36800385
      },
      {
        "name": "王復",
        "year": 1442,
        "addr": "固安",
        "lat": 39.435631,
        "lng": 116.301171
      },
      {
        "name": "王雄",
        "year": 1493,
        "addr": "永清",
        "lat": 39.32571,
        "lng": 116.490608
      },
      {
        "name": "趙錦",
        "year": 1517,
        "addr": "良鄉",
        "lat": 39.741252899,
        "lng": 116.13558197
      },
      {
        "name": "劉體乾",
        "year": 1544,
        "addr": "東安",
        "lat": 26.332001,
        "lng": 111.222092
      },
      {
        "name": "左賢",
        "year": 1457,
        "addr": "宛平",
        "lat": 39.931427002,
        "lng": 116.36800385
      },
      {
        "name": "安璽",
        "year": 1521,
        "addr": "宛平",
        "lat": 39.931427002,
        "lng": 116.36800385
      },
      {
        "name": "李淳",
        "year": 1505,
        "addr": "密雲",
        "lat": 40.371482849,
        "lng": 116.84046173
      },
      {
        "name": "李巽",
        "year": 1454,
        "addr": "宛平",
        "lat": 39.931427002,
        "lng": 116.36800385
      },
      {
        "name": "李賓",
        "year": 1445,
        "addr": "順義",
        "lat": 40.127552032,
        "lng": 116.6414032
      },
      {
        "name": "施純",
        "year": 1466,
        "addr": "東安",
        "lat": 26.332001,
        "lng": 111.222092
      },
      {
        "name": "許復禮",
        "year": 1511,
        "addr": "東安",
        "lat": 26.332001,
        "lng": 111.222092
      },
      {
        "name": "張敏",
        "year": 1433,
        "addr": "永清",
        "lat": 39.32571,
        "lng": 116.490608
      },
      {
        "name": "傅好禮",
        "year": 1574,
        "addr": "固安",
        "lat": 39.435631,
        "lng": 116.301171
      },
      {
        "name": "楊維聰",
        "year": 1521,
        "addr": "固安",
        "lat": 39.435631,
        "lng": 116.301171
      },
      {
        "name": "楊霆",
        "year": 1556,
        "addr": "順義",
        "lat": 40.127552032,
        "lng": 116.6414032
      },
      {
        "name": "翟敬",
        "year": 1442,
        "addr": "大興",
        "lat": 39.931427002,
        "lng": 116.36800385
      },
      {
        "name": "劉一麟",
        "year": 1550,
        "addr": "昌平",
        "lat": 40.2221,
        "lng": 116.2237
      },
      {
        "name": "魏玒",
        "year": 1487,
        "addr": "大興",
        "lat": 39.931427002,
        "lng": 116.36800385
      },
      {
        "name": "蘇志臯",
        "year": 1532,
        "addr": "固安",
        "lat": 39.435631,
        "lng": 116.301171
      },
      {
        "name": "莫灝",
        "year": 1451,
        "addr": "宛平",
        "lat": 39.931427002,
        "lng": 116.36800385
      },
      {
        "name": "劉瑄",
        "year": 1454,
        "addr": "昌平",
        "lat": 40.2221,
        "lng": 116.2237
      },
      {
        "name": "王昇",
        "year": 1454,
        "addr": "密雲",
        "lat": 40.371482849,
        "lng": 116.84046173
      },
      {
        "name": "王詔",
        "year": 1454,
        "addr": "懷柔",
        "lat": 40.312084198,
        "lng": 116.62561035
      },
      {
        "name": "蔡誌",
        "year": 1457,
        "addr": "大興",
        "lat": 39.931427002,
        "lng": 116.36800385
      },
      {
        "name": "孫芳",
        "year": 1457,
        "addr": "大興",
        "lat": 39.931427002,
        "lng": 116.36800385
      },
      {
        "name": "馬馴",
        "year": 1457,
        "addr": "永清",
        "lat": 39.32571,
        "lng": 116.490608
      },
      {
        "name": "顧正",
        "year": 1457,
        "addr": "大興",
        "lat": 39.931427002,
        "lng": 116.36800385
      },
      {
        "name": "錢達",
        "year": 1457,
        "addr": "大興",
        "lat": 39.931427002,
        "lng": 116.36800385
      },
      {
        "name": "李麟",
        "year": 1457,
        "addr": "懷柔",
        "lat": 40.312084198,
        "lng": 116.62561035
      },
      {
        "name": "馬孝祖",
        "year": 1460,
        "addr": "昌平",
        "lat": 40.2221,
        "lng": 116.2237
      },
      {
        "name": "汪寬",
        "year": 1460,
        "addr": "大興",
        "lat": 39.931427002,
        "lng": 116.36800385
      },
      {
        "name": "鄭玉",
        "year": 1464,
        "addr": "大興",
        "lat": 39.931427002,
        "lng": 116.36800385
      },
      {
        "name": "戴玉",
        "year": 1464,
        "addr": "宛平",
        "lat": 39.931427002,
        "lng": 116.36800385
      },
      {
        "name": "劉俊",
        "year": 1464,
        "addr": "順義",
        "lat": 40.127552032,
        "lng": 116.6414032
      },
      {
        "name": "朱鐸",
        "year": 1466,
        "addr": "大興",
        "lat": 39.931427002,
        "lng": 116.36800385
      },
      {
        "name": "王玶",
        "year": 1466,
        "addr": "大興",
        "lat": 39.931427002,
        "lng": 116.36800385
      },
      {
        "name": "魏景釗",
        "year": 1466,
        "addr": "東安",
        "lat": 26.332001,
        "lng": 111.222092
      },
      {
        "name": "劉策",
        "year": 1466,
        "addr": "大興",
        "lat": 39.931427002,
        "lng": 116.36800385
      },
      {
        "name": "劉本",
        "year": 1466,
        "addr": "大興",
        "lat": 39.931427002,
        "lng": 116.36800385
      },
      {
        "name": "戴祐",
        "year": 1466,
        "addr": "大興",
        "lat": 39.931427002,
        "lng": 116.36800385
      },
      {
        "name": "劉瓊",
        "year": 1469,
        "addr": "順義",
        "lat": 40.127552032,
        "lng": 116.6414032
      },
      {
        "name": "劉源",
        "year": 1469,
        "addr": "宛平",
        "lat": 39.931427002,
        "lng": 116.36800385
      },
      {
        "name": "陳以忠",
        "year": 1472,
        "addr": "宛平",
        "lat": 39.931427002,
        "lng": 116.36800385
      },
      {
        "name": "許輔",
        "year": 1472,
        "addr": "東安",
        "lat": 26.332001,
        "lng": 111.222092
      },
      {
        "name": "李瀛",
        "year": 1472,
        "addr": "宛平",
        "lat": 39.931427002,
        "lng": 116.36800385
      },
      {
        "name": "奚銘",
        "year": 1472,
        "addr": "宛平",
        "lat": 39.931427002,
        "lng": 116.36800385
      },
      {
        "name": "王勉",
        "year": 1472,
        "addr": "宛平",
        "lat": 39.931427002,
        "lng": 116.36800385
      },
      {
        "name": "李暹",
        "year": 1472,
        "addr": "大興",
        "lat": 39.931427002,
        "lng": 116.36800385
      },
      {
        "name": "許弼",
        "year": 1475,
        "addr": "東安",
        "lat": 26.332001,
        "lng": 111.222092
      },
      {
        "name": "張宏",
        "year": 1475,
        "addr": "大興",
        "lat": 39.931427002,
        "lng": 116.36800385
      },
      {
        "name": "李德恢",
        "year": 1475,
        "addr": "東安",
        "lat": 26.332001,
        "lng": 111.222092
      },
      {
        "name": "唐瑢",
        "year": 1475,
        "addr": "宛平",
        "lat": 39.931427002,
        "lng": 116.36800385
      },
      {
        "name": "李德仁",
        "year": 1478,
        "addr": "東安",
        "lat": 26.332001,
        "lng": 111.222092
      },
      {
        "name": "馬彝",
        "year": 1400,
        "addr": "永清",
        "lat": 39.32571,
        "lng": 116.490608
      },
      {
        "name": "劉富",
        "year": 1481,
        "addr": "密雲",
        "lat": 40.371482849,
        "lng": 116.84046173
      },
      {
        "name": "何淮",
        "year": 1481,
        "addr": "大興",
        "lat": 39.931427002,
        "lng": 116.36800385
      },
      {
        "name": "辛禮",
        "year": 1487,
        "addr": "良鄉",
        "lat": 39.741252899,
        "lng": 116.13558197
      },
      {
        "name": "李鸞",
        "year": 1487,
        "addr": "固安",
        "lat": 39.435631,
        "lng": 116.301171
      },
      {
        "name": "王欽",
        "year": 1490,
        "addr": "固安",
        "lat": 39.435631,
        "lng": 116.301171
      },
      {
        "name": "徐翊",
        "year": 1493,
        "addr": "大興",
        "lat": 39.931427002,
        "lng": 116.36800385
      },
      {
        "name": "馮清",
        "year": 1493,
        "addr": "宛平",
        "lat": 39.931427002,
        "lng": 116.36800385
      },
      {
        "name": "奚自",
        "year": 1493,
        "addr": "宛平",
        "lat": 39.931427002,
        "lng": 116.36800385
      },
      {
        "name": "居達",
        "year": 1493,
        "addr": "大興",
        "lat": 39.931427002,
        "lng": 116.36800385
      },
      {
        "name": "孫瑞",
        "year": 1493,
        "addr": "東安",
        "lat": 26.332001,
        "lng": 111.222092
      },
      {
        "name": "張玠",
        "year": 1496,
        "addr": "宛平",
        "lat": 39.931427002,
        "lng": 116.36800385
      },
      {
        "name": "李達",
        "year": 1496,
        "addr": "固安",
        "lat": 39.435631,
        "lng": 116.301171
      },
      {
        "name": "趙廉",
        "year": 1496,
        "addr": "大興",
        "lat": 39.931427002,
        "lng": 116.36800385
      },
      {
        "name": "蘇乾",
        "year": 1502,
        "addr": "昌平",
        "lat": 40.2221,
        "lng": 116.2237
      },
      {
        "name": "王鍇",
        "year": 1502,
        "addr": "宛平",
        "lat": 39.931427002,
        "lng": 116.36800385
      },
      {
        "name": "楊恭",
        "year": 1502,
        "addr": "永清",
        "lat": 39.32571,
        "lng": 116.490608
      },
      {
        "name": "李錫",
        "year": 1502,
        "addr": "東安",
        "lat": 26.332001,
        "lng": 111.222092
      },
      {
        "name": "蘇明",
        "year": 1505,
        "addr": "昌平",
        "lat": 40.2221,
        "lng": 116.2237
      },
      {
        "name": "李時",
        "year": 1505,
        "addr": "順天府",
        "lat": 39.931430817,
        "lng": 116.36799622
      },
      {
        "name": "王瑤",
        "year": 1505,
        "addr": "大興",
        "lat": 39.931427002,
        "lng": 116.36800385
      },
      {
        "name": "劉樸",
        "year": 1511,
        "addr": "昌平",
        "lat": 40.2221,
        "lng": 116.2237
      },
      {
        "name": "吳棟",
        "year": 1511,
        "addr": "東安",
        "lat": 26.332001,
        "lng": 111.222092
      },
      {
        "name": "張淮",
        "year": 1517,
        "addr": "密雲",
        "lat": 40.371482849,
        "lng": 116.84046173
      },
      {
        "name": "王可學",
        "year": 1517,
        "addr": "固安",
        "lat": 39.435631,
        "lng": 116.301171
      },
      {
        "name": "王正宗",
        "year": 1517,
        "addr": "固安",
        "lat": 39.435631,
        "lng": 116.301171
      },
      {
        "name": "王煒",
        "year": 1521,
        "addr": "固安",
        "lat": 39.435631,
        "lng": 116.301171
      },
      {
        "name": "孫燦",
        "year": 1521,
        "addr": "昌平",
        "lat": 40.2221,
        "lng": 116.2237
      },
      {
        "name": "石國柱",
        "year": 1521,
        "addr": "大興",
        "lat": 39.931427002,
        "lng": 116.36800385
      },
      {
        "name": "谷鸞",
        "year": 1521,
        "addr": "大興",
        "lat": 39.931427002,
        "lng": 116.36800385
      },
      {
        "name": "蔡復元",
        "year": 1521,
        "addr": "宛平",
        "lat": 39.931427002,
        "lng": 116.36800385
      },
      {
        "name": "杜彰",
        "year": 1529,
        "addr": "東安",
        "lat": 26.332001,
        "lng": 111.222092
      },
      {
        "name": "曹濡",
        "year": 1529,
        "addr": "固安",
        "lat": 39.435631,
        "lng": 116.301171
      },
      {
        "name": "榮愷",
        "year": 1529,
        "addr": "大興",
        "lat": 39.931427002,
        "lng": 116.36800385
      },
      {
        "name": "高澄",
        "year": 1529,
        "addr": "固安",
        "lat": 39.435631,
        "lng": 116.301171
      },
      {
        "name": "王繼芳",
        "year": 1532,
        "addr": "固安",
        "lat": 39.435631,
        "lng": 116.301171
      },
      {
        "name": "劉輔",
        "year": 1535,
        "addr": "大興",
        "lat": 39.931427002,
        "lng": 116.36800385
      },
      {
        "name": "陳與音",
        "year": 1535,
        "addr": "良鄉",
        "lat": 39.741252899,
        "lng": 116.13558197
      },
      {
        "name": "高節",
        "year": 1538,
        "addr": "永清",
        "lat": 39.32571,
        "lng": 116.490608
      },
      {
        "name": "張重",
        "year": 1541,
        "addr": "順義",
        "lat": 40.127552032,
        "lng": 116.6414032
      },
      {
        "name": "段鍊",
        "year": 1541,
        "addr": "固安",
        "lat": 39.435631,
        "lng": 116.301171
      },
      {
        "name": "許應亨",
        "year": 1544,
        "addr": "東安",
        "lat": 26.332001,
        "lng": 111.222092
      },
      {
        "name": "張承敘",
        "year": 1544,
        "addr": "固安",
        "lat": 39.435631,
        "lng": 116.301171
      },
      {
        "name": "何鏜",
        "year": 1547,
        "addr": "宛平",
        "lat": 39.931427002,
        "lng": 116.36800385
      },
      {
        "name": "符允中",
        "year": 1550,
        "addr": "永清",
        "lat": 39.32571,
        "lng": 116.490608
      },
      {
        "name": "劉光遠",
        "year": 1550,
        "addr": "宛平",
        "lat": 39.931427002,
        "lng": 116.36800385
      },
      {
        "name": "鄭逢陽",
        "year": 1550,
        "addr": "固安",
        "lat": 39.435631,
        "lng": 116.301171
      },
      {
        "name": "張大化",
        "year": 1553,
        "addr": "宛平",
        "lat": 39.931427002,
        "lng": 116.36800385
      },
      {
        "name": "殷仁",
        "year": 1553,
        "addr": "懷柔",
        "lat": 40.312084198,
        "lng": 116.62561035
      },
      {
        "name": "劉清",
        "year": 1430,
        "addr": "宛平",
        "lat": 39.931427002,
        "lng": 116.36800385
      },
      {
        "name": "孫汝翼",
        "year": 1559,
        "addr": "密雲",
        "lat": 40.371482849,
        "lng": 116.84046173
      },
      {
        "name": "鮑宗沂",
        "year": 1559,
        "addr": "大興",
        "lat": 39.931427002,
        "lng": 116.36800385
      },
      {
        "name": "張允濟",
        "year": 1562,
        "addr": "固安",
        "lat": 39.435631,
        "lng": 116.301171
      },
      {
        "name": "武尚賢",
        "year": 1562,
        "addr": "永清",
        "lat": 39.32571,
        "lng": 116.490608
      },
      {
        "name": "牛應龍",
        "year": 1562,
        "addr": "固安",
        "lat": 39.435631,
        "lng": 116.301171
      },
      {
        "name": "張燆",
        "year": 1565,
        "addr": "固安",
        "lat": 39.435631,
        "lng": 116.301171
      },
      {
        "name": "楊應中",
        "year": 1583,
        "addr": "固安",
        "lat": 39.435631,
        "lng": 116.301171
      },
      {
        "name": "宋雍",
        "year": 1433,
        "addr": "宛平",
        "lat": 39.931427002,
        "lng": 116.36800385
      },
      {
        "name": "高攀枝",
        "year": 1592,
        "addr": "大興",
        "lat": 39.931427002,
        "lng": 116.36800385
      },
      {
        "name": "張國銳",
        "year": 1610,
        "addr": "大興",
        "lat": 39.931427002,
        "lng": 116.36800385
      },
      {
        "name": "劉懷",
        "year": 1442,
        "addr": "大興",
        "lat": 39.931427002,
        "lng": 116.36800385
      },
      {
        "name": "崔璵",
        "year": 1445,
        "addr": "宛平",
        "lat": 39.931427002,
        "lng": 116.36800385
      },
      {
        "name": "沈紀",
        "year": 1445,
        "addr": "宛平",
        "lat": 39.931427002,
        "lng": 116.36800385
      },
      {
        "name": "王琮",
        "year": 1448,
        "addr": "大興",
        "lat": 39.931427002,
        "lng": 116.36800385
      },
      {
        "name": "戴昂",
        "year": 1448,
        "addr": "懷柔",
        "lat": 40.312084198,
        "lng": 116.62561035
      },
      {
        "name": "華顯",
        "year": 1448,
        "addr": "宛平",
        "lat": 39.931427002,
        "lng": 116.36800385
      },
      {
        "name": "劉璉",
        "year": 1445,
        "addr": "大興",
        "lat": 39.931427002,
        "lng": 116.36800385
      },
      {
        "name": "劉泰",
        "year": 1487,
        "addr": "固安",
        "lat": 39.435631,
        "lng": 116.301171
      },
      {
        "name": "文淵",
        "year": 1418,
        "addr": "大興",
        "lat": 39.931427002,
        "lng": 116.36800385
      },
      {
        "name": "郭光復",
        "year": 1589,
        "addr": "固安",
        "lat": 39.435631,
        "lng": 116.301171
      },
      {
        "name": "施禮",
        "year": 1397,
        "addr": "東安",
        "lat": 26.332001,
        "lng": 111.222092
      },
      {
        "name": "許綸",
        "year": 1484,
        "addr": "東安",
        "lat": 26.332001,
        "lng": 111.222092
      },
      {
        "name": "王文邁",
        "year": 1601,
        "addr": "宛平",
        "lat": 39.931427002,
        "lng": 116.36800385
      },
      {
        "name": "王元建",
        "year": 1637,
        "addr": "大興",
        "lat": 39.931427002,
        "lng": 116.36800385
      },
      {
        "name": "王世隆",
        "year": 1526,
        "addr": "大興",
        "lat": 39.931427002,
        "lng": 116.36800385
      },
      {
        "name": "王教",
        "year": 1523,
        "addr": "良鄉",
        "lat": 39.741252899,
        "lng": 116.13558197
      },
      {
        "name": "王松",
        "year": 1523,
        "addr": "固安",
        "lat": 39.435631,
        "lng": 116.301171
      },
      {
        "name": "王舉",
        "year": 1499,
        "addr": "大興",
        "lat": 39.931427002,
        "lng": 116.36800385
      },
      {
        "name": "張琛",
        "year": 1523,
        "addr": "順義",
        "lat": 40.127552032,
        "lng": 116.6414032
      },
      {
        "name": "張宏",
        "year": 1499,
        "addr": "固安",
        "lat": 39.435631,
        "lng": 116.301171
      },
      {
        "name": "張星",
        "year": 1628,
        "addr": "大興",
        "lat": 39.931427002,
        "lng": 116.36800385
      },
      {
        "name": "張景",
        "year": 1523,
        "addr": "大興",
        "lat": 39.931427002,
        "lng": 116.36800385
      },
      {
        "name": "張鳳翼",
        "year": 1640,
        "addr": "宛平",
        "lat": 39.931427002,
        "lng": 116.36800385
      },
      {
        "name": "孫瑞",
        "year": 1503,
        "addr": "東安",
        "lat": 26.332001,
        "lng": 111.222092
      },
      {
        "name": "耿橘",
        "year": 1601,
        "addr": "宛平",
        "lat": 39.931427002,
        "lng": 116.36800385
      },
      {
        "name": "盧楫",
        "year": 1508,
        "addr": "密雲",
        "lat": 40.371482849,
        "lng": 116.84046173
      },
      {
        "name": "何其智",
        "year": 1589,
        "addr": "固安",
        "lat": 39.435631,
        "lng": 116.301171
      },
      {
        "name": "何鏿",
        "year": 1547,
        "addr": "宛平",
        "lat": 39.931427002,
        "lng": 116.36800385
      },
      {
        "name": "崔旻",
        "year": 1499,
        "addr": "香河",
        "lat": 39.765232,
        "lng": 116.995972
      },
      {
        "name": "吳之芳",
        "year": 1631,
        "addr": "宛平",
        "lat": 39.931427002,
        "lng": 116.36800385
      },
      {
        "name": "徐政",
        "year": 1427,
        "addr": "大興",
        "lat": 39.931427002,
        "lng": 116.36800385
      },
      {
        "name": "梁以樟",
        "year": 1640,
        "addr": "大興",
        "lat": 39.931427002,
        "lng": 116.36800385
      },
      {
        "name": "梁禋",
        "year": 1424,
        "addr": "宛平",
        "lat": 39.931427002,
        "lng": 116.36800385
      },
      {
        "name": "沈自彰",
        "year": 1601,
        "addr": "大興",
        "lat": 39.931427002,
        "lng": 116.36800385
      },
      {
        "name": "沈光裕",
        "year": 1640,
        "addr": "大興",
        "lat": 39.931427002,
        "lng": 116.36800385
      },
      {
        "name": "李珻",
        "year": 1526,
        "addr": "東安",
        "lat": 26.332001,
        "lng": 111.222092
      },
      {
        "name": "李淳",
        "year": 1502,
        "addr": "密雲",
        "lat": 40.371482849,
        "lng": 116.84046173
      },
      {
        "name": "李泰",
        "year": 1448,
        "addr": "香河",
        "lat": 39.765232,
        "lng": 116.995972
      },
      {
        "name": "李鵬翀",
        "year": 1616,
        "addr": "香河",
        "lat": 39.765232,
        "lng": 116.995972
      },
      {
        "name": "李欽昊",
        "year": 1523,
        "addr": "東安",
        "lat": 26.332001,
        "lng": 111.222092
      },
      {
        "name": "李光霽",
        "year": 1514,
        "addr": "東安",
        "lat": 26.332001,
        "lng": 111.222092
      },
      {
        "name": "范鼎",
        "year": 1427,
        "addr": "大興",
        "lat": 39.931427002,
        "lng": 116.36800385
      },
      {
        "name": "苑囿蕃",
        "year": 1625,
        "addr": "良鄉",
        "lat": 39.741252899,
        "lng": 116.13558197
      },
      {
        "name": "蘇民",
        "year": 1526,
        "addr": "固安",
        "lat": 39.435631,
        "lng": 116.301171
      },
      {
        "name": "韓雍",
        "year": 1442,
        "addr": "宛平",
        "lat": 39.931427002,
        "lng": 116.36800385
      },
      {
        "name": "葛逢夏",
        "year": 1628,
        "addr": "順天府",
        "lat": 39.931430817,
        "lng": 116.36799622
      },
      {
        "name": "楊維傑",
        "year": 1526,
        "addr": "固安",
        "lat": 39.435631,
        "lng": 116.301171
      },
      {
        "name": "趙竑",
        "year": 1484,
        "addr": "大興",
        "lat": 39.931427002,
        "lng": 116.36800385
      },
      {
        "name": "盛茂",
        "year": 1508,
        "addr": "順義",
        "lat": 40.127552032,
        "lng": 116.6414032
      },
      {
        "name": "馬彝",
        "year": 1400,
        "addr": "永清",
        "lat": 39.32571,
        "lng": 116.490608
      },
      {
        "name": "劉繼先",
        "year": 1526,
        "addr": "永清",
        "lat": 39.32571,
        "lng": 116.490608
      },
      {
        "name": "劉宣",
        "year": 1385,
        "addr": "永清",
        "lat": 39.32571,
        "lng": 116.490608
      },
      {
        "name": "劉永",
        "year": 1484,
        "addr": "固安",
        "lat": 39.435631,
        "lng": 116.301171
      },
      {
        "name": "劉昂",
        "year": 1484,
        "addr": "宛平",
        "lat": 39.931427002,
        "lng": 116.36800385
      },
      {
        "name": "劉顯續",
        "year": 1637,
        "addr": "大興",
        "lat": 39.931427002,
        "lng": 116.36800385
      },
      {
        "name": "劉鍊",
        "year": 1613,
        "addr": "永清",
        "lat": 39.32571,
        "lng": 116.490608
      },
      {
        "name": "周維新",
        "year": 1628,
        "addr": "宛平",
        "lat": 39.931427002,
        "lng": 116.36800385
      },
      {
        "name": "劉效祖",
        "year": 1541,
        "addr": "順義",
        "lat": 40.127552032,
        "lng": 116.6414032
      }
    ]
  },
  {
    "id": 4507,
    "name": "廣平府",
    "count": 148,
    "lat": 36.70103,
    "lng": 114.7231,
    "people": [
      {
        "name": "賈銓",
        "year": 1424,
        "addr": "邯鄲",
        "lat": 36.593475,
        "lng": 114.472038
      },
      {
        "name": "路振飛",
        "year": 1625,
        "addr": "曲周",
        "lat": 36.779305,
        "lng": 114.949653
      },
      {
        "name": "陳于陛",
        "year": 1559,
        "addr": "曲周",
        "lat": 36.779305,
        "lng": 114.949653
      },
      {
        "name": "張學顏",
        "year": 1553,
        "addr": "肥鄉",
        "lat": 36.552029,
        "lng": 114.803101
      },
      {
        "name": "王一鶚",
        "year": 1553,
        "addr": "曲周",
        "lat": 36.779305,
        "lng": 114.949653
      },
      {
        "name": "王世揚",
        "year": 1577,
        "addr": "廣平",
        "lat": 36.480518000000004,
        "lng": 114.936844
      },
      {
        "name": "王濬",
        "year": 1466,
        "addr": "威縣",
        "lat": 36.974178,
        "lng": 115.259262
      },
      {
        "name": "牛惟炳",
        "year": 1574,
        "addr": "曲周",
        "lat": 36.779305,
        "lng": 114.949653
      },
      {
        "name": "石永",
        "year": 1532,
        "addr": "威縣",
        "lat": 36.974178,
        "lng": 115.259262
      },
      {
        "name": "石渠",
        "year": 1466,
        "addr": "清河",
        "lat": 37.073032,
        "lng": 115.624107
      },
      {
        "name": "申价",
        "year": 1544,
        "addr": "永年",
        "lat": 36.701031,
        "lng": 114.723068
      },
      {
        "name": "申佐",
        "year": 1556,
        "addr": "永年",
        "lat": 36.701031,
        "lng": 114.723068
      },
      {
        "name": "申綸",
        "year": 1505,
        "addr": "永年",
        "lat": 36.701031,
        "lng": 114.723068
      },
      {
        "name": "姚三讓",
        "year": 1574,
        "addr": "永年",
        "lat": 36.701031,
        "lng": 114.723068
      },
      {
        "name": "馬子聰",
        "year": 1487,
        "addr": "廣平",
        "lat": 36.480518000000004,
        "lng": 114.936844
      },
      {
        "name": "馬顯",
        "year": 1442,
        "addr": "廣平",
        "lat": 36.480518000000004,
        "lng": 114.936844
      },
      {
        "name": "郭忠",
        "year": 1469,
        "addr": "肥鄉",
        "lat": 36.552029,
        "lng": 114.803101
      },
      {
        "name": "郭銓",
        "year": 1469,
        "addr": "威縣",
        "lat": 36.974178,
        "lng": 115.259262
      },
      {
        "name": "張思忠",
        "year": 1565,
        "addr": "肥鄉",
        "lat": 36.552029,
        "lng": 114.803101
      },
      {
        "name": "張國彥",
        "year": 1562,
        "addr": "邯鄲",
        "lat": 36.593475,
        "lng": 114.472038
      },
      {
        "name": "賈待問",
        "year": 1568,
        "addr": "威縣",
        "lat": 36.974178,
        "lng": 115.259262
      },
      {
        "name": "蔡可賢",
        "year": 1562,
        "addr": "成安",
        "lat": 36.441349,
        "lng": 114.694061
      },
      {
        "name": "蔡國熙",
        "year": 1559,
        "addr": "永年",
        "lat": 36.701031,
        "lng": 114.723068
      },
      {
        "name": "劉誠",
        "year": 1457,
        "addr": "雞澤",
        "lat": 36.924026,
        "lng": 114.874496
      },
      {
        "name": "聶雲翰",
        "year": 1592,
        "addr": "曲周",
        "lat": 36.779305,
        "lng": 114.949653
      },
      {
        "name": "盧信",
        "year": 1457,
        "addr": "永年",
        "lat": 36.701031,
        "lng": 114.723068
      },
      {
        "name": "鄭賢",
        "year": 1460,
        "addr": "肥鄉",
        "lat": 36.552029,
        "lng": 114.803101
      },
      {
        "name": "鄭銘",
        "year": 1464,
        "addr": "邯鄲",
        "lat": 36.593475,
        "lng": 114.472038
      },
      {
        "name": "徐英",
        "year": 1466,
        "addr": "永年",
        "lat": 36.701031,
        "lng": 114.723068
      },
      {
        "name": "徐瑁",
        "year": 1469,
        "addr": "永年",
        "lat": 36.701031,
        "lng": 114.723068
      },
      {
        "name": "連盛",
        "year": 1478,
        "addr": "永年",
        "lat": 36.701031,
        "lng": 114.723068
      },
      {
        "name": "杜瑄",
        "year": 1478,
        "addr": "永年",
        "lat": 36.701031,
        "lng": 114.723068
      },
      {
        "name": "蔣勛",
        "year": 1481,
        "addr": "肥鄉",
        "lat": 36.552029,
        "lng": 114.803101
      },
      {
        "name": "董威",
        "year": 1487,
        "addr": "威縣",
        "lat": 36.974178,
        "lng": 115.259262
      },
      {
        "name": "徐銳",
        "year": 1490,
        "addr": "永年",
        "lat": 36.701031,
        "lng": 114.723068
      },
      {
        "name": "焦澤",
        "year": 1493,
        "addr": "永年",
        "lat": 36.701031,
        "lng": 114.723068
      },
      {
        "name": "郭郛",
        "year": 1496,
        "addr": "肥鄉",
        "lat": 36.552029,
        "lng": 114.803101
      },
      {
        "name": "高鸞",
        "year": 1529,
        "addr": "永年",
        "lat": 36.701031,
        "lng": 114.723068
      },
      {
        "name": "張棐",
        "year": 1532,
        "addr": "邯鄲",
        "lat": 36.593475,
        "lng": 114.472038
      },
      {
        "name": "王朝相",
        "year": 1535,
        "addr": "永年",
        "lat": 36.701031,
        "lng": 114.723068
      },
      {
        "name": "蒿賓",
        "year": 1538,
        "addr": "清河",
        "lat": 37.073032,
        "lng": 115.624107
      },
      {
        "name": "李僅可",
        "year": 1538,
        "addr": "清河",
        "lat": 37.073032,
        "lng": 115.624107
      },
      {
        "name": "杜秉彝",
        "year": 1541,
        "addr": "永年",
        "lat": 36.701031,
        "lng": 114.723068
      },
      {
        "name": "馬快",
        "year": 1544,
        "addr": "廣平",
        "lat": 36.480518000000004,
        "lng": 114.936844
      },
      {
        "name": "劉錫",
        "year": 1547,
        "addr": "雞澤",
        "lat": 36.924026,
        "lng": 114.874496
      },
      {
        "name": "周京",
        "year": 1553,
        "addr": "永年",
        "lat": 36.701031,
        "lng": 114.723068
      },
      {
        "name": "胡應文",
        "year": 1553,
        "addr": "永年",
        "lat": 36.701031,
        "lng": 114.723068
      },
      {
        "name": "牛山木",
        "year": 1553,
        "addr": "曲周",
        "lat": 36.779305,
        "lng": 114.949653
      },
      {
        "name": "王宮用",
        "year": 1553,
        "addr": "成安",
        "lat": 36.441349,
        "lng": 114.694061
      },
      {
        "name": "安謙",
        "year": 1553,
        "addr": "成安",
        "lat": 36.441349,
        "lng": 114.694061
      },
      {
        "name": "楊進道",
        "year": 1556,
        "addr": "曲周",
        "lat": 36.779305,
        "lng": 114.949653
      },
      {
        "name": "李齊芳",
        "year": 1556,
        "addr": "成安",
        "lat": 36.441349,
        "lng": 114.694061
      },
      {
        "name": "金貴",
        "year": 1430,
        "addr": "邯鄲",
        "lat": 36.593475,
        "lng": 114.472038
      },
      {
        "name": "蔡可教",
        "year": 1559,
        "addr": "成安",
        "lat": 36.441349,
        "lng": 114.694061
      },
      {
        "name": "李堯德",
        "year": 1559,
        "addr": "永年",
        "lat": 36.701031,
        "lng": 114.723068
      },
      {
        "name": "吳一琴",
        "year": 1562,
        "addr": "成安",
        "lat": 36.441349,
        "lng": 114.694061
      },
      {
        "name": "齊康",
        "year": 1562,
        "addr": "永年",
        "lat": 36.701031,
        "lng": 114.723068
      },
      {
        "name": "馬明謨",
        "year": 1562,
        "addr": "廣平",
        "lat": 36.480518000000004,
        "lng": 114.936844
      },
      {
        "name": "郭崇嗣",
        "year": 1562,
        "addr": "肥鄉",
        "lat": 36.552029,
        "lng": 114.803101
      },
      {
        "name": "吳善言",
        "year": 1562,
        "addr": "成安",
        "lat": 36.441349,
        "lng": 114.694061
      },
      {
        "name": "霍維藎",
        "year": 1565,
        "addr": "曲周",
        "lat": 36.779305,
        "lng": 114.949653
      },
      {
        "name": "岳維華",
        "year": 1565,
        "addr": "曲周",
        "lat": 36.779305,
        "lng": 114.949653
      },
      {
        "name": "秦吉士",
        "year": 1565,
        "addr": "曲周",
        "lat": 36.779305,
        "lng": 114.949653
      },
      {
        "name": "袁魁",
        "year": 1568,
        "addr": "成安",
        "lat": 36.441349,
        "lng": 114.694061
      },
      {
        "name": "袁弘德",
        "year": 1568,
        "addr": "曲周",
        "lat": 36.779305,
        "lng": 114.949653
      },
      {
        "name": "王來召",
        "year": 1568,
        "addr": "成安",
        "lat": 36.441349,
        "lng": 114.694061
      },
      {
        "name": "謝良弼",
        "year": 1568,
        "addr": "永年",
        "lat": 36.701031,
        "lng": 114.723068
      },
      {
        "name": "連三元",
        "year": 1571,
        "addr": "永年",
        "lat": 36.701031,
        "lng": 114.723068
      },
      {
        "name": "苗浡然",
        "year": 1571,
        "addr": "曲周",
        "lat": 36.779305,
        "lng": 114.949653
      },
      {
        "name": "宋范",
        "year": 1571,
        "addr": "永年",
        "lat": 36.701031,
        "lng": 114.723068
      },
      {
        "name": "李杜",
        "year": 1574,
        "addr": "永年",
        "lat": 36.701031,
        "lng": 114.723068
      },
      {
        "name": "陳于階",
        "year": 1574,
        "addr": "曲周",
        "lat": 36.779305,
        "lng": 114.949653
      },
      {
        "name": "張一德",
        "year": 1577,
        "addr": "邯鄲",
        "lat": 36.593475,
        "lng": 114.472038
      },
      {
        "name": "白一言",
        "year": 1577,
        "addr": "永年",
        "lat": 36.701031,
        "lng": 114.723068
      },
      {
        "name": "李杜",
        "year": 1577,
        "addr": "肥鄉",
        "lat": 36.552029,
        "lng": 114.803101
      },
      {
        "name": "盧大順",
        "year": 1580,
        "addr": "永年",
        "lat": 36.701031,
        "lng": 114.723068
      },
      {
        "name": "杜縻",
        "year": 1580,
        "addr": "永年",
        "lat": 36.701031,
        "lng": 114.723068
      },
      {
        "name": "張我續",
        "year": 1580,
        "addr": "邯鄲",
        "lat": 36.593475,
        "lng": 114.472038
      },
      {
        "name": "郝大猷",
        "year": 1580,
        "addr": "邯鄲",
        "lat": 36.593475,
        "lng": 114.472038
      },
      {
        "name": "張大謨",
        "year": 1580,
        "addr": "永年",
        "lat": 36.701031,
        "lng": 114.723068
      },
      {
        "name": "王室垣",
        "year": 1583,
        "addr": "曲周",
        "lat": 36.779305,
        "lng": 114.949653
      },
      {
        "name": "盧大中",
        "year": 1583,
        "addr": "永年",
        "lat": 36.701031,
        "lng": 114.723068
      },
      {
        "name": "喬光岳",
        "year": 1583,
        "addr": "肥鄉",
        "lat": 36.552029,
        "lng": 114.803101
      },
      {
        "name": "杜廕",
        "year": 1583,
        "addr": "永年",
        "lat": 36.701031,
        "lng": 114.723068
      },
      {
        "name": "張翰",
        "year": 1586,
        "addr": "永年",
        "lat": 36.701031,
        "lng": 114.723068
      },
      {
        "name": "蓋國士",
        "year": 1586,
        "addr": "永年",
        "lat": 36.701031,
        "lng": 114.723068
      },
      {
        "name": "宋薦",
        "year": 1586,
        "addr": "肥鄉",
        "lat": 36.552029,
        "lng": 114.803101
      },
      {
        "name": "趙夢麟",
        "year": 1586,
        "addr": "永年",
        "lat": 36.701031,
        "lng": 114.723068
      },
      {
        "name": "魏諤",
        "year": 1586,
        "addr": "清河",
        "lat": 37.073032,
        "lng": 115.624107
      },
      {
        "name": "宋師程",
        "year": 1586,
        "addr": "廣平府",
        "lat": 36.70103,
        "lng": 114.7231
      },
      {
        "name": "李必達",
        "year": 1592,
        "addr": "肥鄉",
        "lat": 36.552029,
        "lng": 114.803101
      },
      {
        "name": "冀光祚",
        "year": 1592,
        "addr": "邯鄲",
        "lat": 36.593475,
        "lng": 114.472038
      },
      {
        "name": "高棟",
        "year": 1610,
        "addr": "曲周",
        "lat": 36.779305,
        "lng": 114.949653
      },
      {
        "name": "宋學道",
        "year": 1610,
        "addr": "永年",
        "lat": 36.701031,
        "lng": 114.723068
      },
      {
        "name": "張斌",
        "year": 1439,
        "addr": "永年",
        "lat": 36.701031,
        "lng": 114.723068
      },
      {
        "name": "高安",
        "year": 1445,
        "addr": "威縣",
        "lat": 36.974178,
        "lng": 115.259262
      },
      {
        "name": "謝景星",
        "year": 1484,
        "addr": "邯鄲",
        "lat": 36.593475,
        "lng": 114.472038
      },
      {
        "name": "郭郊",
        "year": 1508,
        "addr": "肥鄉",
        "lat": 36.552029,
        "lng": 114.803101
      },
      {
        "name": "郭佳鎮",
        "year": 1598,
        "addr": "邯鄲",
        "lat": 36.593475,
        "lng": 114.472038
      },
      {
        "name": "王建極",
        "year": 1625,
        "addr": "威縣",
        "lat": 36.974178,
        "lng": 115.259262
      },
      {
        "name": "王家瑞",
        "year": 1598,
        "addr": "成安",
        "lat": 36.441349,
        "lng": 114.694061
      },
      {
        "name": "王良佐",
        "year": 1598,
        "addr": "邯鄲",
        "lat": 36.593475,
        "lng": 114.472038
      },
      {
        "name": "王夢蛟",
        "year": 1607,
        "addr": "雞澤",
        "lat": 36.924026,
        "lng": 114.874496
      },
      {
        "name": "王顯",
        "year": 1637,
        "addr": "曲周",
        "lat": 36.779305,
        "lng": 114.949653
      },
      {
        "name": "霍允猷",
        "year": 1616,
        "addr": "曲周",
        "lat": 36.779305,
        "lng": 114.949653
      },
      {
        "name": "石瓘",
        "year": 1523,
        "addr": "威縣",
        "lat": 36.974178,
        "lng": 115.259262
      },
      {
        "name": "雷屯",
        "year": 1415,
        "addr": "永年",
        "lat": 36.701031,
        "lng": 114.723068
      },
      {
        "name": "賈熙績",
        "year": 1604,
        "addr": "雞澤",
        "lat": 36.924026,
        "lng": 114.874496
      },
      {
        "name": "張師孟",
        "year": 1607,
        "addr": "曲周",
        "lat": 36.779305,
        "lng": 114.949653
      },
      {
        "name": "張潤身",
        "year": 1514,
        "addr": "成安",
        "lat": 36.441349,
        "lng": 114.694061
      },
      {
        "name": "張濩",
        "year": 1640,
        "addr": "邯鄲",
        "lat": 36.593475,
        "lng": 114.472038
      },
      {
        "name": "張其庭",
        "year": 1607,
        "addr": "邯鄲",
        "lat": 36.593475,
        "lng": 114.472038
      },
      {
        "name": "孫脩",
        "year": 1505,
        "addr": "邯鄲",
        "lat": 36.593475,
        "lng": 114.472038
      },
      {
        "name": "吳維東",
        "year": 1604,
        "addr": "成安",
        "lat": 36.441349,
        "lng": 114.694061
      },
      {
        "name": "徐淳",
        "year": 1385,
        "addr": "成安",
        "lat": 36.441349,
        "lng": 114.694061
      },
      {
        "name": "宋璉",
        "year": 1526,
        "addr": "永年",
        "lat": 36.701031,
        "lng": 114.723068
      },
      {
        "name": "宋師程",
        "year": 1589,
        "addr": "永年",
        "lat": 36.701031,
        "lng": 114.723068
      },
      {
        "name": "連鑛",
        "year": 1526,
        "addr": "永年",
        "lat": 36.701031,
        "lng": 114.723068
      },
      {
        "name": "李仁",
        "year": 1523,
        "addr": "曲周",
        "lat": 36.779305,
        "lng": 114.949653
      },
      {
        "name": "李嘉彥",
        "year": 1631,
        "addr": "曲周",
        "lat": 36.779305,
        "lng": 114.949653
      },
      {
        "name": "李芳溏",
        "year": 1631,
        "addr": "永年",
        "lat": 36.701031,
        "lng": 114.723068
      },
      {
        "name": "李枝秀",
        "year": 1601,
        "addr": "肥鄉",
        "lat": 36.552029,
        "lng": 114.803101
      },
      {
        "name": "李春蓁",
        "year": 1631,
        "addr": "永年",
        "lat": 36.701031,
        "lng": 114.723068
      },
      {
        "name": "李養冲",
        "year": 1607,
        "addr": "永年",
        "lat": 36.701031,
        "lng": 114.723068
      },
      {
        "name": "李養志",
        "year": 1604,
        "addr": "永年",
        "lat": 36.701031,
        "lng": 114.723068
      },
      {
        "name": "彭化鳳",
        "year": 1604,
        "addr": "曲周",
        "lat": 36.779305,
        "lng": 114.949653
      },
      {
        "name": "姚斌",
        "year": 1484,
        "addr": "永年",
        "lat": 36.701031,
        "lng": 114.723068
      },
      {
        "name": "蘇名世",
        "year": 1643,
        "addr": "肥鄉",
        "lat": 36.552029,
        "lng": 114.803101
      },
      {
        "name": "杜秉彝",
        "year": 1541,
        "addr": "永年",
        "lat": 36.701031,
        "lng": 114.723068
      },
      {
        "name": "楊調鼎",
        "year": 1631,
        "addr": "成安",
        "lat": 36.441349,
        "lng": 114.694061
      },
      {
        "name": "楊一鶚",
        "year": 1553,
        "addr": "曲周",
        "lat": 36.779305,
        "lng": 114.949653
      },
      {
        "name": "楊清",
        "year": 1499,
        "addr": "清河",
        "lat": 37.073032,
        "lng": 115.624107
      },
      {
        "name": "胡沾恩",
        "year": 1613,
        "addr": "永年",
        "lat": 36.701031,
        "lng": 114.723068
      },
      {
        "name": "胡福弘",
        "year": 1622,
        "addr": "永年",
        "lat": 36.701031,
        "lng": 114.723068
      },
      {
        "name": "都郊",
        "year": 1514,
        "addr": "廣平",
        "lat": 36.480518000000004,
        "lng": 114.936844
      },
      {
        "name": "趙忠",
        "year": 1454,
        "addr": "曲周",
        "lat": 36.779305,
        "lng": 114.949653
      },
      {
        "name": "秦廷奏",
        "year": 1628,
        "addr": "曲周",
        "lat": 36.779305,
        "lng": 114.949653
      },
      {
        "name": "秦羽明",
        "year": 1622,
        "addr": "清河",
        "lat": 37.073032,
        "lng": 115.624107
      },
      {
        "name": "甲為憲",
        "year": 1622,
        "addr": "永年",
        "lat": 36.701031,
        "lng": 114.723068
      },
      {
        "name": "單鏡",
        "year": 1616,
        "addr": "永年",
        "lat": 36.701031,
        "lng": 114.723068
      },
      {
        "name": "馬任遠",
        "year": 1619,
        "addr": "永年",
        "lat": 36.701031,
        "lng": 114.723068
      },
      {
        "name": "馬兆煃",
        "year": 1640,
        "addr": "永年",
        "lat": 36.701031,
        "lng": 114.723068
      },
      {
        "name": "劉榮嗣",
        "year": 1616,
        "addr": "曲周",
        "lat": 36.779305,
        "lng": 114.949653
      },
      {
        "name": "陳廷謨",
        "year": 1622,
        "addr": "成安",
        "lat": 36.441349,
        "lng": 114.694061
      },
      {
        "name": "鍾希顏",
        "year": 1622,
        "addr": "清河",
        "lat": 37.073032,
        "lng": 115.624107
      },
      {
        "name": "高起",
        "year": 1385,
        "addr": "永年",
        "lat": 36.701031,
        "lng": 114.723068
      },
      {
        "name": "康應乾",
        "year": 1604,
        "addr": "雞澤",
        "lat": 36.924026,
        "lng": 114.874496
      },
      {
        "name": "石永",
        "year": 1532,
        "addr": "威縣",
        "lat": 36.974178,
        "lng": 115.259262
      }
    ]
  },
  {
    "id": 4437,
    "name": "河間府",
    "count": 147,
    "lat": 38.435699463,
    "lng": 116.08553314,
    "people": [
      {
        "name": "余繼登",
        "year": 1577,
        "addr": "交河",
        "lat": 38.017044,
        "lng": 116.285118
      },
      {
        "name": "屈伸",
        "year": 1487,
        "addr": "任邱",
        "lat": 38.707668304,
        "lng": 116.09048462
      },
      {
        "name": "張泰",
        "year": 1478,
        "addr": "肅寧",
        "lat": 38.431767,
        "lng": 115.83181
      },
      {
        "name": "李時",
        "year": 1502,
        "addr": "任邱",
        "lat": 38.707668304,
        "lng": 116.09048462
      },
      {
        "name": "李禎寧",
        "year": 1610,
        "addr": "任邱",
        "lat": 38.707668304,
        "lng": 116.09048462
      },
      {
        "name": "王江",
        "year": 1511,
        "addr": "任邱",
        "lat": 38.707668304,
        "lng": 116.09048462
      },
      {
        "name": "王良貴",
        "year": 1547,
        "addr": "寧津",
        "lat": 37.649857,
        "lng": 116.792801
      },
      {
        "name": "沈冬魁",
        "year": 1490,
        "addr": "阜城",
        "lat": 37.868179,
        "lng": 116.144707
      },
      {
        "name": "李旦",
        "year": 1481,
        "addr": "獻縣",
        "lat": 38.190697,
        "lng": 116.114899
      },
      {
        "name": "李汶",
        "year": 1562,
        "addr": "任邱",
        "lat": 38.707668304,
        "lng": 116.09048462
      },
      {
        "name": "李坦",
        "year": 1521,
        "addr": "任邱",
        "lat": 38.707668304,
        "lng": 116.09048462
      },
      {
        "name": "李楘",
        "year": 1478,
        "addr": "任邱",
        "lat": 38.707668304,
        "lng": 116.09048462
      },
      {
        "name": "房瑄",
        "year": 1490,
        "addr": "任邱",
        "lat": 38.707668304,
        "lng": 116.09048462
      },
      {
        "name": "唐章",
        "year": 1466,
        "addr": "獻縣",
        "lat": 38.190697,
        "lng": 116.114899
      },
      {
        "name": "曹一鵬",
        "year": 1577,
        "addr": "任邱",
        "lat": 38.707668304,
        "lng": 116.09048462
      },
      {
        "name": "張岐",
        "year": 1454,
        "addr": "興濟",
        "lat": 38.471256,
        "lng": 116.893753
      },
      {
        "name": "張忠",
        "year": 1529,
        "addr": "任邱",
        "lat": 38.707668304,
        "lng": 116.09048462
      },
      {
        "name": "張思",
        "year": 1532,
        "addr": "任邱",
        "lat": 38.707668304,
        "lng": 116.09048462
      },
      {
        "name": "陳鉞",
        "year": 1457,
        "addr": "獻縣",
        "lat": 38.190697,
        "lng": 116.114899
      },
      {
        "name": "閔楷",
        "year": 1505,
        "addr": "任邱",
        "lat": 38.707668304,
        "lng": 116.09048462
      },
      {
        "name": "鄭宗仁",
        "year": 1487,
        "addr": "任邱",
        "lat": 38.707668304,
        "lng": 116.09048462
      },
      {
        "name": "劉元震",
        "year": 1571,
        "addr": "任邱",
        "lat": 38.707668304,
        "lng": 116.09048462
      },
      {
        "name": "劉元霖",
        "year": 1580,
        "addr": "任邱",
        "lat": 38.707668304,
        "lng": 116.09048462
      },
      {
        "name": "劉綱",
        "year": 1490,
        "addr": "任邱",
        "lat": 38.707668304,
        "lng": 116.09048462
      },
      {
        "name": "鄺璠",
        "year": 1493,
        "addr": "任邱",
        "lat": 38.707668304,
        "lng": 116.09048462
      },
      {
        "name": "邊永",
        "year": 1445,
        "addr": "任邱",
        "lat": 38.707668304,
        "lng": 116.09048462
      },
      {
        "name": "邊侁",
        "year": 1532,
        "addr": "任邱",
        "lat": 38.707668304,
        "lng": 116.09048462
      },
      {
        "name": "邊洵",
        "year": 1544,
        "addr": "任邱",
        "lat": 38.707668304,
        "lng": 116.09048462
      },
      {
        "name": "曾會",
        "year": 1454,
        "addr": "河間府",
        "lat": 38.435699463,
        "lng": 116.08553314
      },
      {
        "name": "呂恕",
        "year": 1454,
        "addr": "河間府",
        "lat": 38.435699463,
        "lng": 116.08553314
      },
      {
        "name": "于欽",
        "year": 1457,
        "addr": "交河",
        "lat": 38.017044,
        "lng": 116.285118
      },
      {
        "name": "彭昭",
        "year": 1460,
        "addr": "獻縣",
        "lat": 38.190697,
        "lng": 116.114899
      },
      {
        "name": "段譽",
        "year": 1464,
        "addr": "肅寧",
        "lat": 38.431767,
        "lng": 115.83181
      },
      {
        "name": "鄧鉉",
        "year": 1464,
        "addr": "青縣",
        "lat": 38.580715,
        "lng": 116.825432
      },
      {
        "name": "周郁",
        "year": 1469,
        "addr": "阜城",
        "lat": 37.868179,
        "lng": 116.144707
      },
      {
        "name": "李寅",
        "year": 1472,
        "addr": "興濟",
        "lat": 38.471256,
        "lng": 116.893753
      },
      {
        "name": "孫賓",
        "year": 1475,
        "addr": "交河",
        "lat": 38.017044,
        "lng": 116.285118
      },
      {
        "name": "徐佑",
        "year": 1478,
        "addr": "肅寧",
        "lat": 38.431767,
        "lng": 115.83181
      },
      {
        "name": "劉翔",
        "year": 1478,
        "addr": "獻縣",
        "lat": 38.190697,
        "lng": 116.114899
      },
      {
        "name": "翟能",
        "year": 1478,
        "addr": "河間",
        "lat": 38.435699,
        "lng": 116.085533
      },
      {
        "name": "范珤",
        "year": 1481,
        "addr": "阜城",
        "lat": 37.868179,
        "lng": 116.144707
      },
      {
        "name": "周琰",
        "year": 1487,
        "addr": "阜城",
        "lat": 37.868179,
        "lng": 116.144707
      },
      {
        "name": "馬政",
        "year": 1487,
        "addr": "青縣",
        "lat": 38.580715,
        "lng": 116.825432
      },
      {
        "name": "徐紀",
        "year": 1487,
        "addr": "任邱",
        "lat": 38.707668304,
        "lng": 116.09048462
      },
      {
        "name": "胡暘",
        "year": 1493,
        "addr": "任邱",
        "lat": 38.707668304,
        "lng": 116.09048462
      },
      {
        "name": "徐忱",
        "year": 1496,
        "addr": "肅寧",
        "lat": 38.431767,
        "lng": 115.83181
      },
      {
        "name": "王注",
        "year": 1502,
        "addr": "獻縣",
        "lat": 38.190697,
        "lng": 116.114899
      },
      {
        "name": "閔槐",
        "year": 1505,
        "addr": "任邱",
        "lat": 38.707668304,
        "lng": 116.09048462
      },
      {
        "name": "袁經",
        "year": 1505,
        "addr": "青縣",
        "lat": 38.580715,
        "lng": 116.825432
      },
      {
        "name": "馮時雍",
        "year": 1505,
        "addr": "交河",
        "lat": 38.017044,
        "lng": 116.285118
      },
      {
        "name": "邊寭",
        "year": 1511,
        "addr": "任邱",
        "lat": 38.707668304,
        "lng": 116.09048462
      },
      {
        "name": "彭應軫",
        "year": 1511,
        "addr": "獻縣",
        "lat": 38.190697,
        "lng": 116.114899
      },
      {
        "name": "許仁",
        "year": 1517,
        "addr": "交河",
        "lat": 38.017044,
        "lng": 116.285118
      },
      {
        "name": "邊仲",
        "year": 1517,
        "addr": "任邱",
        "lat": 38.707668304,
        "lng": 116.09048462
      },
      {
        "name": "馬冕",
        "year": 1517,
        "addr": "肅寧",
        "lat": 38.431767,
        "lng": 115.83181
      },
      {
        "name": "袁淮",
        "year": 1517,
        "addr": "任邱",
        "lat": 38.707668304,
        "lng": 116.09048462
      },
      {
        "name": "宋沂",
        "year": 1517,
        "addr": "靜海",
        "lat": 38.934357,
        "lng": 116.919083
      },
      {
        "name": "朱孔陽",
        "year": 1521,
        "addr": "河間",
        "lat": 38.435699,
        "lng": 116.085533
      },
      {
        "name": "趙永淳",
        "year": 1521,
        "addr": "任邱",
        "lat": 38.707668304,
        "lng": 116.09048462
      },
      {
        "name": "杜蕙",
        "year": 1521,
        "addr": "任邱",
        "lat": 38.707668304,
        "lng": 116.09048462
      },
      {
        "name": "王重賢",
        "year": 1521,
        "addr": "交河",
        "lat": 38.017044,
        "lng": 116.285118
      },
      {
        "name": "常時平",
        "year": 1529,
        "addr": "交河",
        "lat": 38.017044,
        "lng": 116.285118
      },
      {
        "name": "郭圻",
        "year": 1529,
        "addr": "任邱",
        "lat": 38.707668304,
        "lng": 116.09048462
      },
      {
        "name": "王珩",
        "year": 1532,
        "addr": "交河",
        "lat": 38.017044,
        "lng": 116.285118
      },
      {
        "name": "趙一中",
        "year": 1532,
        "addr": "青縣",
        "lat": 38.580715,
        "lng": 116.825432
      },
      {
        "name": "王聮",
        "year": 1532,
        "addr": "任邱",
        "lat": 38.707668304,
        "lng": 116.09048462
      },
      {
        "name": "邉沆",
        "year": 1532,
        "addr": "任邱",
        "lat": 38.707668304,
        "lng": 116.09048462
      },
      {
        "name": "邉涔",
        "year": 1532,
        "addr": "任邱",
        "lat": 38.707668304,
        "lng": 116.09048462
      },
      {
        "name": "王崇",
        "year": 1535,
        "addr": "任邱",
        "lat": 38.707668304,
        "lng": 116.09048462
      },
      {
        "name": "劉棟",
        "year": 1535,
        "addr": "任邱",
        "lat": 38.707668304,
        "lng": 116.09048462
      },
      {
        "name": "郭乾",
        "year": 1538,
        "addr": "任邱",
        "lat": 38.707668304,
        "lng": 116.09048462
      },
      {
        "name": "薛尚義",
        "year": 1538,
        "addr": "河間",
        "lat": 38.435699,
        "lng": 116.085533
      },
      {
        "name": "白璧",
        "year": 1541,
        "addr": "河間",
        "lat": 38.435699,
        "lng": 116.085533
      },
      {
        "name": "趙介夫",
        "year": 1541,
        "addr": "阜城",
        "lat": 37.868179,
        "lng": 116.144707
      },
      {
        "name": "史載德",
        "year": 1541,
        "addr": "任邱",
        "lat": 38.707668304,
        "lng": 116.09048462
      },
      {
        "name": "李恕",
        "year": 1544,
        "addr": "獻縣",
        "lat": 38.190697,
        "lng": 116.114899
      },
      {
        "name": "蕭汝默",
        "year": 1547,
        "addr": "靜海",
        "lat": 38.934357,
        "lng": 116.919083
      },
      {
        "name": "陳瓚",
        "year": 1547,
        "addr": "獻縣",
        "lat": 38.190697,
        "lng": 116.114899
      },
      {
        "name": "呂燿",
        "year": 1550,
        "addr": "獻縣",
        "lat": 38.190697,
        "lng": 116.114899
      },
      {
        "name": "柳宗葵",
        "year": 1550,
        "addr": "河間",
        "lat": 38.435699,
        "lng": 116.085533
      },
      {
        "name": "劉勃",
        "year": 1550,
        "addr": "任邱",
        "lat": 38.707668304,
        "lng": 116.09048462
      },
      {
        "name": "唐世隆",
        "year": 1550,
        "addr": "獻縣",
        "lat": 38.190697,
        "lng": 116.114899
      },
      {
        "name": "邊傒",
        "year": 1553,
        "addr": "任邱",
        "lat": 38.707668304,
        "lng": 116.09048462
      },
      {
        "name": "蘇存",
        "year": 1553,
        "addr": "任邱",
        "lat": 38.707668304,
        "lng": 116.09048462
      },
      {
        "name": "牛鏡",
        "year": 1556,
        "addr": "獻縣",
        "lat": 38.190697,
        "lng": 116.114899
      },
      {
        "name": "龐瀾",
        "year": 1559,
        "addr": "任邱",
        "lat": 38.707668304,
        "lng": 116.09048462
      },
      {
        "name": "楊子實",
        "year": 1562,
        "addr": "河間",
        "lat": 38.435699,
        "lng": 116.085533
      },
      {
        "name": "張一通",
        "year": 1565,
        "addr": "寧津",
        "lat": 37.649857,
        "lng": 116.792801
      },
      {
        "name": "田樂",
        "year": 1568,
        "addr": "任邱",
        "lat": 38.707668304,
        "lng": 116.09048462
      },
      {
        "name": "張簡",
        "year": 1568,
        "addr": "靜海",
        "lat": 38.934357,
        "lng": 116.919083
      },
      {
        "name": "任天祚",
        "year": 1571,
        "addr": "河間府",
        "lat": 38.435699463,
        "lng": 116.08553314
      },
      {
        "name": "祁鯨",
        "year": 1571,
        "addr": "阜城",
        "lat": 37.868179,
        "lng": 116.144707
      },
      {
        "name": "李梯",
        "year": 1571,
        "addr": "任邱",
        "lat": 38.707668304,
        "lng": 116.09048462
      },
      {
        "name": "倪三綬",
        "year": 1574,
        "addr": "阜城",
        "lat": 37.868179,
        "lng": 116.144707
      },
      {
        "name": "祁鯤",
        "year": 1577,
        "addr": "阜城",
        "lat": 37.868179,
        "lng": 116.144707
      },
      {
        "name": "張國璽",
        "year": 1577,
        "addr": "任邱",
        "lat": 38.707668304,
        "lng": 116.09048462
      },
      {
        "name": "易登瀛",
        "year": 1577,
        "addr": "肅寧",
        "lat": 38.431767,
        "lng": 115.83181
      },
      {
        "name": "周維翰",
        "year": 1580,
        "addr": "阜城",
        "lat": 37.868179,
        "lng": 116.144707
      },
      {
        "name": "李日茂",
        "year": 1586,
        "addr": "青縣",
        "lat": 38.580715,
        "lng": 116.825432
      },
      {
        "name": "王一之",
        "year": 1592,
        "addr": "肅寧",
        "lat": 38.431767,
        "lng": 115.83181
      },
      {
        "name": "玄默",
        "year": 1619,
        "addr": "靜海",
        "lat": 38.934357,
        "lng": 116.919083
      },
      {
        "name": "鄺珩",
        "year": 1499,
        "addr": "任邱",
        "lat": 38.707668304,
        "lng": 116.09048462
      },
      {
        "name": "王聯",
        "year": 1532,
        "addr": "任邱",
        "lat": 38.707668304,
        "lng": 116.09048462
      },
      {
        "name": "王億",
        "year": 1523,
        "addr": "獻縣",
        "lat": 38.190697,
        "lng": 116.114899
      },
      {
        "name": "王九敍",
        "year": 1601,
        "addr": "肅寧",
        "lat": 38.431767,
        "lng": 115.83181
      },
      {
        "name": "于溱",
        "year": 1508,
        "addr": "任邱",
        "lat": 38.707668304,
        "lng": 116.09048462
      },
      {
        "name": "雷明",
        "year": 1406,
        "addr": "交河",
        "lat": 38.017044,
        "lng": 116.285118
      },
      {
        "name": "賈太初",
        "year": 1637,
        "addr": "河間",
        "lat": 38.435699,
        "lng": 116.085533
      },
      {
        "name": "張奇柱",
        "year": 1628,
        "addr": "肅寧",
        "lat": 38.431767,
        "lng": 115.83181
      },
      {
        "name": "孫禎",
        "year": 1499,
        "addr": "任邱",
        "lat": 38.707668304,
        "lng": 116.09048462
      },
      {
        "name": "及宦",
        "year": 1514,
        "addr": "交河",
        "lat": 38.017044,
        "lng": 116.285118
      },
      {
        "name": "傅暠",
        "year": 1427,
        "addr": "河間府",
        "lat": 38.435699463,
        "lng": 116.08553314
      },
      {
        "name": "牛鸞",
        "year": 1508,
        "addr": "獻縣",
        "lat": 38.190697,
        "lng": 116.114899
      },
      {
        "name": "紀資",
        "year": 1523,
        "addr": "任邱",
        "lat": 38.707668304,
        "lng": 116.09048462
      },
      {
        "name": "宮繼蘭",
        "year": 1637,
        "addr": "靜海",
        "lat": 38.934357,
        "lng": 116.919083
      },
      {
        "name": "宮偉鏐",
        "year": 1643,
        "addr": "靜海",
        "lat": 38.934357,
        "lng": 116.919083
      },
      {
        "name": "宋鏜",
        "year": 1499,
        "addr": "靜海",
        "lat": 38.934357,
        "lng": 116.919083
      },
      {
        "name": "馮嘉會",
        "year": 1595,
        "addr": "河間",
        "lat": 38.435699,
        "lng": 116.085533
      },
      {
        "name": "馮時行",
        "year": 1589,
        "addr": "河間",
        "lat": 38.435699,
        "lng": 116.085533
      },
      {
        "name": "馮曾",
        "year": 1514,
        "addr": "河間府",
        "lat": 38.435699463,
        "lng": 116.08553314
      },
      {
        "name": "邊億",
        "year": 1499,
        "addr": "任邱",
        "lat": 38.707668304,
        "lng": 116.09048462
      },
      {
        "name": "邊偉",
        "year": 1508,
        "addr": "任邱",
        "lat": 38.707668304,
        "lng": 116.09048462
      },
      {
        "name": "邊沆",
        "year": 1532,
        "addr": "任邱",
        "lat": 38.707668304,
        "lng": 116.09048462
      },
      {
        "name": "邊寵",
        "year": 1499,
        "addr": "任邱",
        "lat": 38.707668304,
        "lng": 116.09048462
      },
      {
        "name": "邊憲",
        "year": 1511,
        "addr": "任邱",
        "lat": 38.707668304,
        "lng": 116.09048462
      },
      {
        "name": "邊憲",
        "year": 1484,
        "addr": "任邱",
        "lat": 38.707668304,
        "lng": 116.09048462
      },
      {
        "name": "邊涔",
        "year": 1532,
        "addr": "任邱",
        "lat": 38.707668304,
        "lng": 116.09048462
      },
      {
        "name": "李應明",
        "year": 1625,
        "addr": "任邱",
        "lat": 38.707668304,
        "lng": 116.09048462
      },
      {
        "name": "李士焜",
        "year": 1634,
        "addr": "任邱",
        "lat": 38.707668304,
        "lng": 116.09048462
      },
      {
        "name": "李楨寧",
        "year": 1610,
        "addr": "任邱",
        "lat": 38.707668304,
        "lng": 116.09048462
      },
      {
        "name": "李昌",
        "year": 1625,
        "addr": "興濟",
        "lat": 38.471256,
        "lng": 116.893753
      },
      {
        "name": "李長春",
        "year": 1613,
        "addr": "興濟",
        "lat": 38.471256,
        "lng": 116.893753
      },
      {
        "name": "苑秀",
        "year": 1499,
        "addr": "肅寧",
        "lat": 38.431767,
        "lng": 115.83181
      },
      {
        "name": "黃玠",
        "year": 1523,
        "addr": "任邱",
        "lat": 38.707668304,
        "lng": 116.09048462
      },
      {
        "name": "杜養性",
        "year": 1589,
        "addr": "阜城",
        "lat": 37.868179,
        "lng": 116.144707
      },
      {
        "name": "楊文?",
        "year": 1598,
        "addr": "青縣",
        "lat": 38.580715,
        "lng": 116.825432
      },
      {
        "name": "楊澤",
        "year": 1484,
        "addr": "河間",
        "lat": 38.435699,
        "lng": 116.085533
      },
      {
        "name": "郝鎰",
        "year": 1484,
        "addr": "河間",
        "lat": 38.435699,
        "lng": 116.085533
      },
      {
        "name": "曹清",
        "year": 1643,
        "addr": "任邱",
        "lat": 38.707668304,
        "lng": 116.09048462
      },
      {
        "name": "田恭",
        "year": 1397,
        "addr": "交河",
        "lat": 38.017044,
        "lng": 116.285118
      },
      {
        "name": "畢貴",
        "year": 1385,
        "addr": "任邱",
        "lat": 38.707668304,
        "lng": 116.09048462
      },
      {
        "name": "呂耀",
        "year": 1550,
        "addr": "獻縣",
        "lat": 38.190697,
        "lng": 116.114899
      },
      {
        "name": "馬永壽",
        "year": 1526,
        "addr": "青縣",
        "lat": 38.580715,
        "lng": 116.825432
      },
      {
        "name": "劉浩",
        "year": 1418,
        "addr": "阜城",
        "lat": 37.868179,
        "lng": 116.144707
      },
      {
        "name": "陳燿",
        "year": 1526,
        "addr": "靜海",
        "lat": 38.934357,
        "lng": 116.919083
      },
      {
        "name": "周東",
        "year": 1484,
        "addr": "阜城",
        "lat": 37.868179,
        "lng": 116.144707
      },
      {
        "name": "鄭氣",
        "year": 1514,
        "addr": "靜海",
        "lat": 38.934357,
        "lng": 116.919083
      }
    ]
  },
  {
    "id": 4526,
    "name": "開州",
    "count": 119,
    "lat": 35.754283905,
    "lng": 115.00592804,
    "people": [
      {
        "name": "王家楨",
        "year": 1607,
        "addr": "長垣",
        "lat": 35.19836,
        "lng": 114.682724
      },
      {
        "name": "翟唐",
        "year": 1499,
        "addr": "長垣",
        "lat": 35.19836,
        "lng": 114.682724
      },
      {
        "name": "靳聖居",
        "year": 1628,
        "addr": "長垣",
        "lat": 35.19836,
        "lng": 114.682724
      },
      {
        "name": "李化龍",
        "year": 1574,
        "addr": "長垣",
        "lat": 35.19836,
        "lng": 114.682724
      },
      {
        "name": "王永光",
        "year": 1592,
        "addr": "長垣",
        "lat": 35.19836,
        "lng": 114.682724
      },
      {
        "name": "王綖",
        "year": 1505,
        "addr": "開州",
        "lat": 35.754283905,
        "lng": 115.00592804
      },
      {
        "name": "王綸",
        "year": 1490,
        "addr": "開州",
        "lat": 35.754283905,
        "lng": 115.00592804
      },
      {
        "name": "石星",
        "year": 1559,
        "addr": "東明",
        "lat": 35.298492,
        "lng": 115.088844
      },
      {
        "name": "史褒善",
        "year": 1532,
        "addr": "開州",
        "lat": 35.754283905,
        "lng": 115.00592804
      },
      {
        "name": "朱爵",
        "year": 1586,
        "addr": "開州",
        "lat": 35.754283905,
        "lng": 115.00592804
      },
      {
        "name": "宋欽",
        "year": 1517,
        "addr": "開州",
        "lat": 35.754283905,
        "lng": 115.00592804
      },
      {
        "name": "李珏",
        "year": 1505,
        "addr": "開州",
        "lat": 35.754283905,
        "lng": 115.00592804
      },
      {
        "name": "侯秩",
        "year": 1517,
        "addr": "長垣",
        "lat": 35.19836,
        "lng": 114.682724
      },
      {
        "name": "孫聰",
        "year": 1511,
        "addr": "開州",
        "lat": 35.754283905,
        "lng": 115.00592804
      },
      {
        "name": "晁東吳",
        "year": 1553,
        "addr": "開州",
        "lat": 35.754283905,
        "lng": 115.00592804
      },
      {
        "name": "晁瑮",
        "year": 1541,
        "addr": "開州",
        "lat": 35.754283905,
        "lng": 115.00592804
      },
      {
        "name": "郜永春",
        "year": 1562,
        "addr": "長垣",
        "lat": 35.19836,
        "lng": 114.682724
      },
      {
        "name": "徐大壯",
        "year": 1553,
        "addr": "長垣",
        "lat": 35.19836,
        "lng": 114.682724
      },
      {
        "name": "崔景榮",
        "year": 1583,
        "addr": "長垣",
        "lat": 35.19836,
        "lng": 114.682724
      },
      {
        "name": "趙廷瑞",
        "year": 1521,
        "addr": "開州",
        "lat": 35.754283905,
        "lng": 115.00592804
      },
      {
        "name": "趙莘",
        "year": 1559,
        "addr": "長垣",
        "lat": 35.19836,
        "lng": 114.682724
      },
      {
        "name": "盧學禮",
        "year": 1577,
        "addr": "東明",
        "lat": 35.298492,
        "lng": 115.088844
      },
      {
        "name": "穆文熙",
        "year": 1562,
        "addr": "東明",
        "lat": 35.298492,
        "lng": 115.088844
      },
      {
        "name": "程鑑",
        "year": 1454,
        "addr": "開州",
        "lat": 35.754283905,
        "lng": 115.00592804
      },
      {
        "name": "郭仲珣",
        "year": 1454,
        "addr": "開州",
        "lat": 35.754283905,
        "lng": 115.00592804
      },
      {
        "name": "李溥",
        "year": 1454,
        "addr": "長垣",
        "lat": 35.19836,
        "lng": 114.682724
      },
      {
        "name": "李岳",
        "year": 1454,
        "addr": "長垣",
        "lat": 35.19836,
        "lng": 114.682724
      },
      {
        "name": "胡睿",
        "year": 1457,
        "addr": "長垣",
        "lat": 35.19836,
        "lng": 114.682724
      },
      {
        "name": "紀欽",
        "year": 1460,
        "addr": "開州",
        "lat": 35.754283905,
        "lng": 115.00592804
      },
      {
        "name": "侯英",
        "year": 1460,
        "addr": "開州",
        "lat": 35.754283905,
        "lng": 115.00592804
      },
      {
        "name": "王範",
        "year": 1460,
        "addr": "開州",
        "lat": 35.754283905,
        "lng": 115.00592804
      },
      {
        "name": "谷琰",
        "year": 1460,
        "addr": "開州",
        "lat": 35.754283905,
        "lng": 115.00592804
      },
      {
        "name": "王璽",
        "year": 1460,
        "addr": "長垣",
        "lat": 35.19836,
        "lng": 114.682724
      },
      {
        "name": "毛鸃",
        "year": 1464,
        "addr": "長垣",
        "lat": 35.19836,
        "lng": 114.682724
      },
      {
        "name": "劉輔",
        "year": 1472,
        "addr": "開州",
        "lat": 35.754283905,
        "lng": 115.00592804
      },
      {
        "name": "王佐",
        "year": 1472,
        "addr": "開州",
        "lat": 35.754283905,
        "lng": 115.00592804
      },
      {
        "name": "張冕",
        "year": 1478,
        "addr": "長垣",
        "lat": 35.19836,
        "lng": 114.682724
      },
      {
        "name": "王璇",
        "year": 1481,
        "addr": "長垣",
        "lat": 35.19836,
        "lng": 114.682724
      },
      {
        "name": "張昹",
        "year": 1481,
        "addr": "長垣",
        "lat": 35.19836,
        "lng": 114.682724
      },
      {
        "name": "胡鍵",
        "year": 1496,
        "addr": "長垣",
        "lat": 35.19836,
        "lng": 114.682724
      },
      {
        "name": "趙祜",
        "year": 1502,
        "addr": "長垣",
        "lat": 35.19836,
        "lng": 114.682724
      },
      {
        "name": "張鎔",
        "year": 1505,
        "addr": "東明",
        "lat": 35.298492,
        "lng": 115.088844
      },
      {
        "name": "劉守達",
        "year": 1505,
        "addr": "開州",
        "lat": 35.754283905,
        "lng": 115.00592804
      },
      {
        "name": "劉城",
        "year": 1511,
        "addr": "東明",
        "lat": 35.298492,
        "lng": 115.088844
      },
      {
        "name": "王溱",
        "year": 1511,
        "addr": "開州",
        "lat": 35.754283905,
        "lng": 115.00592804
      },
      {
        "name": "翟璘",
        "year": 1517,
        "addr": "長垣",
        "lat": 35.19836,
        "lng": 114.682724
      },
      {
        "name": "王世爵",
        "year": 1521,
        "addr": "開州",
        "lat": 35.754283905,
        "lng": 115.00592804
      },
      {
        "name": "王紀",
        "year": 1521,
        "addr": "開州",
        "lat": 35.754283905,
        "lng": 115.00592804
      },
      {
        "name": "孫國",
        "year": 1535,
        "addr": "開州",
        "lat": 35.754283905,
        "lng": 115.00592804
      },