[
  {
    "id": 6703,
    "name": "思南府",
    "count": 4,
    "lat": 27.940149307,
    "lng": 108.24182892,
    "people": [
      {
        "name": "申祐",
        "year": 1445,
        "addr": "務川",
        "lat": 28.526127,
        "lng": 107.889809
      },
      {
        "name": "張守宗",
        "year": 1550,
        "addr": "水德江長官司",
        "lat": 27.940149307,
        "lng": 108.24182892
      },
      {
        "name": "蕭重望",
        "year": 1586,
        "addr": "思南府",
        "lat": 27.940149307,
        "lng": 108.24182892
      },
      {
        "name": "田秋",
        "year": 1514,
        "addr": "思南府",
        "lat": 27.940149307,
        "lng": 108.24182892
      }
    ]
  },
  {
    "id": 6681,
    "name": "銅仁府",
    "count": 2,
    "lat": 27.722480774,
    "lng": 109.19268799,
    "people": [
      {
        "name": "陳珊",
        "year": 1553,
        "addr": "銅仁府",
        "lat": 27.722480774,
        "lng": 109.19268799
      },
      {
        "name": "楊如臯",
        "year": 1604,
        "addr": "銅仁府",
        "lat": 27.722480774,
        "lng": 109.19268799
      }
    ]
  },
  {
    "id": 6572,
    "name": "永寧州",
    "count": 2,
    "lat": 37.510108948,
    "lng": 111.13517761,
    "people": [
      {
        "name": "高三重",
        "year": 1628,
        "addr": "永寧州",
        "lat": 37.510108948,
        "lng": 111.13517761
      },
      {
        "name": "王文清",
        "year": 1619,
        "addr": "永寧州",
        "lat": 37.510108948,
        "lng": 111.13517761
      }
    ]
  },
  {
    "id": 303666,
    "name": "貴陽府",
    "count": 2,
    "lat": 26.58078,
    "lng": 106.70911,
    "people": [
      {
        "name": "張一甲",
        "year": 1640,
        "addr": "貴陽府",
        "lat": 26.58078,
        "lng": 106.70911
      },
      {
        "name": "徐卿伯",
        "year": 1613,
        "addr": "貴陽府",
        "lat": 26.58078,
        "lng": 106.70911
      }
    ]
  },
  {
    "id": 6676,
    "name": "石阡府",
    "count": 2,
    "lat": 27.521961212,
    "lng": 108.23181152,
    "people": [
      {
        "name": "胡允敬",
        "year": 1637,
        "addr": "石阡府",
        "lat": 27.521961212,
        "lng": 108.23181152
      },
      {
        "name": "費道用",
        "year": 1631,
        "addr": "石阡府",
        "lat": 27.521961212,
        "lng": 108.23181152
      }
    ]
  },
  {
    "id": 6711,
    "name": "程番府",
    "count": 1,
    "lat": 26.138759613,
    "lng": 106.65624237,
    "people": [
      {
        "name": "馬士英",
        "year": 1619,
        "addr": "程番府",
        "lat": 26.138759613,
        "lng": 106.65624237
      }
    ]
  },
  {
    "id": 6573,
    "name": "永寧州",
    "count": 1,
    "lat": 37.510108948,
    "lng": 111.13517761,
    "people": [
      {
        "name": "熊文燦",
        "year": 1607,
        "addr": "永寧州",
        "lat": 37.510108948,
        "lng": 111.13517761
      }
    ]
  },
  {
    "id": 6733,
    "name": "都勻府",
    "count": 1,
    "lat": 26.265649796,
    "lng": 107.51876068,
    "people": [
      {
        "name": "陳尚象",
        "year": 1580,
        "addr": "都勻府",
        "lat": 26.265649796,
        "lng": 107.51876068
      }
    ]
  },
  {
    "id": 6670,
    "name": "鎮遠府",
    "count": 1,
    "lat": 27.054264069,
    "lng": 108.4184494,
    "people": [
      {
        "name": "李覺先",
        "year": 1637,
        "addr": "鎮遠",
        "lat": 27.054264069,
        "lng": 108.4184494
      }
    ]
  },
  {
    "id": 8901,
    "name": "銅仁府",
    "count": 1,
    "lat": 27.722476959,
    "lng": 109.19268799,
    "people": [
      {
        "name": "萬任",
        "year": 1634,
        "addr": "銅仁",
        "lat": 27.722476959,
        "lng": 109.19268799
      }
    ]
  },
  {
    "id": 6570,
    "name": "普安州",
    "count": 1,
    "lat": 25.794799805,
    "lng": 104.74359894,
    "people": [
      {
        "name": "趙昱",
        "year": 1637,
        "addr": "普安州",
        "lat": 25.794799805,
        "lng": 104.74359894
      }
    ]
  }
]