[
  {
    "id": 9045,
    "name": "鞏昌府",
    "count": 70,
    "lat": 35.007137299,
    "lng": 104.63560486,
    "people": [
      {
        "name": "牛樹梅",
        "year": 1841,
        "addr": "通渭",
        "lat": 35.213928223,
        "lng": 105.24948883
      },
      {
        "name": "馬疏",
        "year": 1820,
        "addr": "安定",
        "lat": 35.575092316,
        "lng": 104.62030792
      },
      {
        "name": "康敉",
        "year": 1862,
        "addr": "安定",
        "lat": 35.575092316,
        "lng": 104.62030792
      },
      {
        "name": "王作樞",
        "year": 1874,
        "addr": "安定",
        "lat": 35.575092316,
        "lng": 104.62030792
      },
      {
        "name": "王鴻薦",
        "year": 1724,
        "addr": "安定",
        "lat": 35.575092316,
        "lng": 104.62030792
      },
      {
        "name": "王海涵",
        "year": 1890,
        "addr": "伏羌",
        "lat": 34.739437103,
        "lng": 105.32907867
      },
      {
        "name": "賈楊宗",
        "year": 1817,
        "addr": "安定",
        "lat": 35.575092316,
        "lng": 104.62030792
      },
      {
        "name": "張繼",
        "year": 1876,
        "addr": "隴西",
        "lat": 35.007137299,
        "lng": 104.63560486
      },
      {
        "name": "張斗南",
        "year": 1894,
        "addr": "伏羌",
        "lat": 34.739437103,
        "lng": 105.32907867
      },
      {
        "name": "張汝洽",
        "year": 1883,
        "addr": "會寧",
        "lat": 35.694198608,
        "lng": 105.05613708
      },
      {
        "name": "張輔辰",
        "year": 1670,
        "addr": "伏羌",
        "lat": 34.739437103,
        "lng": 105.32907867
      },
      {
        "name": "張敏行",
        "year": 1845,
        "addr": "隴西",
        "lat": 35.007137299,
        "lng": 104.63560486
      },
      {
        "name": "武鑣",
        "year": 1889,
        "addr": "隴西",
        "lat": 35.007137299,
        "lng": 104.63560486
      },
      {
        "name": "武籌",
        "year": 1679,
        "addr": "伏羌",
        "lat": 34.739437103,
        "lng": 105.32907867
      },
      {
        "name": "武尚仁",
        "year": 1852,
        "addr": "隴西",
        "lat": 35.007137299,
        "lng": 104.63560486
      },
      {
        "name": "鞏建豐",
        "year": 1713,
        "addr": "伏羌",
        "lat": 34.739437103,
        "lng": 105.32907867
      },
      {
        "name": "任廷颺",
        "year": 1889,
        "addr": "伏羌",
        "lat": 34.739437103,
        "lng": 105.32907867
      },
      {
        "name": "任尚蕙",
        "year": 1787,
        "addr": "西和",
        "lat": 34.011928558,
        "lng": 105.29072571
      },
      {
        "name": "牛瑗",
        "year": 1892,
        "addr": "通渭",
        "lat": 35.213928223,
        "lng": 105.24948883
      },
      {
        "name": "魏立",
        "year": 1889,
        "addr": "伏羌",
        "lat": 34.739437103,
        "lng": 105.32907867
      },
      {
        "name": "魏鴻儀",
        "year": 1898,
        "addr": "伏羌",
        "lat": 34.739437103,
        "lng": 105.32907867
      },
      {
        "name": "吳思權",
        "year": 1817,
        "addr": "會寧",
        "lat": 35.694198608,
        "lng": 105.05613708
      },
      {
        "name": "吳耀曾",
        "year": 1874,
        "addr": "會寧",
        "lat": 35.694198608,
        "lng": 105.05613708
      },
      {
        "name": "侯樹銜",
        "year": 1847,
        "addr": "隴西",
        "lat": 35.007137299,
        "lng": 104.63560486
      },
      {
        "name": "包永昌",
        "year": 1877,
        "addr": "洮州廳",
        "lat": 34.67685318,
        "lng": 103.66926575
      },
      {
        "name": "安守和",
        "year": 1874,
        "addr": "安定",
        "lat": 35.575092316,
        "lng": 104.62030792
      },
      {
        "name": "安蔭甲",
        "year": 1890,
        "addr": "安定",
        "lat": 35.575092316,
        "lng": 104.62030792
      },
      {
        "name": "宋朝楠",
        "year": 1688,
        "addr": "隴西",
        "lat": 35.007137299,
        "lng": 104.63560486
      },
      {
        "name": "汪執桓",
        "year": 1727,
        "addr": "隴西",
        "lat": 35.007137299,
        "lng": 104.63560486
      },
      {
        "name": "馮克勳",
        "year": 1852,
        "addr": "洮州廳",
        "lat": 34.67685318,
        "lng": 103.66926575
      },
      {
        "name": "沈嘉麟",
        "year": 1718,
        "addr": "寧遠",
        "lat": 34.720016479,
        "lng": 104.88529205
      },
      {
        "name": "南弘緒",
        "year": 1713,
        "addr": "安定",
        "lat": 35.575092316,
        "lng": 104.62030792
      },
      {
        "name": "南儀",
        "year": 1649,
        "addr": "安定",
        "lat": 35.575092316,
        "lng": 104.62030792
      },
      {
        "name": "南曰廷",
        "year": 1748,
        "addr": "安定",
        "lat": 35.575092316,
        "lng": 104.62030792
      },
      {
        "name": "李玩蓮",
        "year": 1772,
        "addr": "會寧",
        "lat": 35.694198608,
        "lng": 105.05613708
      },
      {
        "name": "李友齡",
        "year": 1852,
        "addr": "安定",
        "lat": 35.575092316,
        "lng": 104.62030792
      },
      {
        "name": "李士則",
        "year": 1883,
        "addr": "伏羌",
        "lat": 34.739437103,
        "lng": 105.32907867
      },
      {
        "name": "李則廣",
        "year": 1832,
        "addr": "伏羌",
        "lat": 34.739437103,
        "lng": 105.32907867
      },
      {
        "name": "彭作籍",
        "year": 1833,
        "addr": "伏羌",
        "lat": 34.739437103,
        "lng": 105.32907867
      },
      {
        "name": "蕭比捷",
        "year": 1748,
        "addr": "寧遠",
        "lat": 34.720016479,
        "lng": 104.88529205
      },
      {
        "name": "蘇源泉",
        "year": 1904,
        "addr": "會寧",
        "lat": 35.694198608,
        "lng": 105.05613708
      },
      {
        "name": "蘇耀泉",
        "year": 1898,
        "addr": "會寧",
        "lat": 35.694198608,
        "lng": 105.05613708
      },
      {
        "name": "萬寶成",
        "year": 1904,
        "addr": "會寧",
        "lat": 35.694198608,
        "lng": 105.05613708
      },
      {
        "name": "黃玉鉉",
        "year": 1659,
        "addr": "漳縣",
        "lat": 34.850636,
        "lng": 104.472137
      },
      {
        "name": "黃元吉",
        "year": 1811,
        "addr": "寧遠",
        "lat": 34.720016479,
        "lng": 104.88529205
      },
      {
        "name": "黃虞再",
        "year": 1655,
        "addr": "伏羌",
        "lat": 34.739437103,
        "lng": 105.32907867
      },
      {
        "name": "黃成采",
        "year": 1856,
        "addr": "伏羌",
        "lat": 34.739437103,
        "lng": 105.32907867
      },
      {
        "name": "楊上容",
        "year": 1822,
        "addr": "寧遠",
        "lat": 34.720016479,
        "lng": 104.88529205
      },
      {
        "name": "楊純臣",
        "year": 1661,
        "addr": "漳縣",
        "lat": 34.850636,
        "lng": 104.472137
      },
      {
        "name": "楊名世",
        "year": 1737,
        "addr": "隴西",
        "lat": 35.007137299,
        "lng": 104.63560486
      },
      {
        "name": "楊思",
        "year": 1903,
        "addr": "會寧",
        "lat": 35.694198608,
        "lng": 105.05613708
      },
      {
        "name": "楊昇",
        "year": 1838,
        "addr": "安定",
        "lat": 35.575092316,
        "lng": 104.62030792
      },
      {
        "name": "柳淵",
        "year": 1844,
        "addr": "會寧",
        "lat": 35.694198608,
        "lng": 105.05613708
      },
      {
        "name": "柳邁祖",
        "year": 1787,
        "addr": "會寧",
        "lat": 35.694198608,
        "lng": 105.05613708
      },
      {
        "name": "秦望瀾",
        "year": 1895,
        "addr": "會寧",
        "lat": 35.694198608,
        "lng": 105.05613708
      },
      {
        "name": "田榭楨",
        "year": 1841,
        "addr": "伏羌",
        "lat": 34.739437103,
        "lng": 105.32907867
      },
      {
        "name": "田際春",
        "year": 1853,
        "addr": "隴西",
        "lat": 35.007137299,
        "lng": 104.63560486
      },
      {
        "name": "馬綸篤",
        "year": 1847,
        "addr": "安定",
        "lat": 35.575092316,
        "lng": 104.62030792
      },
      {
        "name": "馬如鑑",
        "year": 1895,
        "addr": "隴西",
        "lat": 35.007137299,
        "lng": 104.63560486
      },
      {
        "name": "馬榮朝",
        "year": 1727,
        "addr": "隴西",
        "lat": 35.007137299,
        "lng": 104.63560486
      },
      {
        "name": "劉慶篤",
        "year": 1894,
        "addr": "會寧",
        "lat": 35.694198608,
        "lng": 105.05613708
      },
      {
        "name": "劉灝",
        "year": 1853,
        "addr": "會寧",
        "lat": 35.694198608,
        "lng": 105.05613708
      },
      {
        "name": "劉嘉嗣",
        "year": 1835,
        "addr": "安定",
        "lat": 35.575092316,
        "lng": 104.62030792
      },
      {
        "name": "劉炳青",
        "year": 1886,
        "addr": "隴西",
        "lat": 35.007137299,
        "lng": 104.63560486
      },
      {
        "name": "劉熤",
        "year": 1739,
        "addr": "安定",
        "lat": 35.575092316,
        "lng": 104.62030792
      },
      {
        "name": "陳廷鑑",
        "year": 1889,
        "addr": "寧遠",
        "lat": 34.720016479,
        "lng": 104.88529205
      },
      {
        "name": "陳長復",
        "year": 1723,
        "addr": "隴西",
        "lat": 35.007137299,
        "lng": 104.63560486
      },
      {
        "name": "周誠之",
        "year": 1840,
        "addr": "隴西",
        "lat": 35.007137299,
        "lng": 104.63560486
      },
      {
        "name": "閻士璘",
        "year": 1904,
        "addr": "隴西",
        "lat": 35.007137299,
        "lng": 104.63560486
      },
      {
        "name": "康節",
        "year": 1817,
        "addr": "會寧",
        "lat": 35.694198608,
        "lng": 105.05613708
      }
    ]
  },
  {
    "id": 9059,
    "name": "涼州府",
    "count": 53,
    "lat": 37.92691803,
    "lng": 102.63469696,
    "people": [
      {
        "name": "牛鑑",
        "year": 1814,
        "addr": "武威",
        "lat": 37.92691803,
        "lng": 102.63469696
      },
      {
        "name": "孫詔",
        "year": 1712,
        "addr": "武威",
        "lat": 37.92691803,
        "lng": 102.63469696
      },
      {
        "name": "張澍",
        "year": 1799,
        "addr": "武威",
        "lat": 37.92691803,
        "lng": 102.63469696
      },
      {
        "name": "張澂",
        "year": 1889,
        "addr": "古浪",
        "lat": 37.463989258,
        "lng": 102.88088226
      },
      {
        "name": "龔溥",
        "year": 1808,
        "addr": "武威",
        "lat": 37.92691803,
        "lng": 102.63469696
      },
      {
        "name": "郭楷",
        "year": 1795,
        "addr": "武威",
        "lat": 37.92691803,
        "lng": 102.63469696
      },
      {
        "name": "許楫",
        "year": 1871,
        "addr": "武威",
        "lat": 37.92691803,
        "lng": 102.63469696
      },
      {
        "name": "王于烈",
        "year": 1819,
        "addr": "武威",
        "lat": 37.92691803,
        "lng": 102.63469696
      },
      {
        "name": "王化南",
        "year": 1739,
        "addr": "武威",
        "lat": 37.92691803,
        "lng": 102.63469696
      },
      {
        "name": "王之英",
        "year": 1852,
        "addr": "武威",
        "lat": 37.92691803,
        "lng": 102.63469696
      },
      {
        "name": "王宏善",
        "year": 1752,
        "addr": "鎮番",
        "lat": 38.625671387,
        "lng": 103.0888443
      },
      {
        "name": "王有德",
        "year": 1730,
        "addr": "鎮番",
        "lat": 38.625671387,
        "lng": 103.0888443
      },
      {
        "name": "王鑑塘",
        "year": 1852,
        "addr": "平番",
        "lat": 36.736995697,
        "lng": 103.25861359
      },
      {
        "name": "丁鎧",
        "year": 1823,
        "addr": "武威",
        "lat": 37.92691803,
        "lng": 102.63469696
      },
      {
        "name": "張詔",
        "year": 1856,
        "addr": "武威",
        "lat": 37.92691803,
        "lng": 102.63469696
      },
      {
        "name": "張爾周",
        "year": 1850,
        "addr": "鎮番",
        "lat": 38.625671387,
        "lng": 103.0888443
      },
      {
        "name": "張翽",
        "year": 1769,
        "addr": "武威",
        "lat": 37.92691803,
        "lng": 102.63469696
      },
      {
        "name": "張兆衡",
        "year": 1820,
        "addr": "武威",
        "lat": 37.92691803,
        "lng": 102.63469696
      },
      {
        "name": "張奮翼",
        "year": 1845,
        "addr": "鎮番",
        "lat": 38.625671387,
        "lng": 103.0888443
      },
      {
        "name": "張景福",
        "year": 1856,
        "addr": "武威",
        "lat": 37.92691803,
        "lng": 102.63469696
      },
      {
        "name": "張美如",
        "year": 1808,
        "addr": "武威",
        "lat": 37.92691803,
        "lng": 102.63469696
      },
      {
        "name": "張銑",
        "year": 1903,
        "addr": "武威",
        "lat": 37.92691803,
        "lng": 102.63469696
      },
      {
        "name": "孫俌",
        "year": 1751,
        "addr": "武威",
        "lat": 37.92691803,
        "lng": 102.63469696
      },
      {
        "name": "尹世衡",
        "year": 1811,
        "addr": "武威",
        "lat": 37.92691803,
        "lng": 102.63469696
      },
      {
        "name": "盧生蓮",
        "year": 1733,
        "addr": "鎮番",
        "lat": 38.625671387,
        "lng": 103.0888443
      },
      {
        "name": "何承先",
        "year": 1805,
        "addr": "武威",
        "lat": 37.92691803,
        "lng": 102.63469696
      },
      {
        "name": "任于正",
        "year": 1890,
        "addr": "武威",
        "lat": 37.92691803,
        "lng": 102.63469696
      },
      {
        "name": "任國楨",
        "year": 1847,
        "addr": "武威",
        "lat": 37.92691803,
        "lng": 102.63469696
      },
      {
        "name": "傅培峰",
        "year": 1847,
        "addr": "鎮番",
        "lat": 38.625671387,
        "lng": 103.0888443
      },
      {
        "name": "保鑑",
        "year": 1877,
        "addr": "平番",
        "lat": 36.736995697,
        "lng": 103.25861359
      },
      {
        "name": "倫肇紀",
        "year": 1880,
        "addr": "武威",
        "lat": 37.92691803,
        "lng": 102.63469696
      },
      {
        "name": "潘一奎",
        "year": 1819,
        "addr": "武威",
        "lat": 37.92691803,
        "lng": 102.63469696
      },
      {
        "name": "凌邦靖",
        "year": 1877,
        "addr": "永昌",
        "lat": 38.246646881,
        "lng": 101.96912384
      },
      {
        "name": "南濟漢",
        "year": 1780,
        "addr": "永昌",
        "lat": 38.246646881,
        "lng": 101.96912384
      },
      {
        "name": "南宮鼎",
        "year": 1751,
        "addr": "永昌",
        "lat": 38.246646881,
        "lng": 101.96912384
      },
      {
        "name": "李于鍇",
        "year": 1895,
        "addr": "武威",
        "lat": 37.92691803,
        "lng": 102.63469696
      },
      {
        "name": "李蕡生",
        "year": 1809,
        "addr": "武威",
        "lat": 37.92691803,
        "lng": 102.63469696
      },
      {
        "name": "李蘊芳",
        "year": 1752,
        "addr": "武威",
        "lat": 37.92691803,
        "lng": 102.63469696
      },
      {
        "name": "袁煇山",
        "year": 1856,
        "addr": "武威",
        "lat": 37.92691803,
        "lng": 102.63469696
      },
      {
        "name": "蕭士雙",
        "year": 1787,
        "addr": "武威",
        "lat": 37.92691803,
        "lng": 102.63469696
      },
      {
        "name": "蘇暻",
        "year": 1730,
        "addr": "武威",
        "lat": 37.92691803,
        "lng": 102.63469696
      },
      {
        "name": "蔡發甲",
        "year": 1823,
        "addr": "涼州府",
        "lat": 37.92691803,
        "lng": 102.63469696
      },
      {
        "name": "蔡式鈺",
        "year": 1850,
        "addr": "武威",
        "lat": 37.92691803,
        "lng": 102.63469696
      },
      {
        "name": "權尚忠",
        "year": 1898,
        "addr": "武威",
        "lat": 37.92691803,
        "lng": 102.63469696
      },
      {
        "name": "趙廷錫",
        "year": 1809,
        "addr": "武威",
        "lat": 37.92691803,
        "lng": 102.63469696
      },
      {
        "name": "馬廷錫",
        "year": 1809,
        "addr": "武威",
        "lat": 37.92691803,
        "lng": 102.63469696
      },
      {
        "name": "馬侃",
        "year": 1877,
        "addr": "武威",
        "lat": 37.92691803,
        "lng": 102.63469696
      },
      {
        "name": "馬明義",
        "year": 1865,
        "addr": "鎮番",
        "lat": 38.625671387,
        "lng": 103.0888443
      },
      {
        "name": "劉作垣",
        "year": 1761,
        "addr": "武威",
        "lat": 37.92691803,
        "lng": 102.63469696
      },
      {
        "name": "劉開第",
        "year": 1862,
        "addr": "武威",
        "lat": 37.92691803,
        "lng": 102.63469696
      },
      {
        "name": "劉鎧",
        "year": 1847,
        "addr": "武威",
        "lat": 37.92691803,
        "lng": 102.63469696
      },
      {
        "name": "陳作樞",
        "year": 1844,
        "addr": "武威",
        "lat": 37.92691803,
        "lng": 102.63469696
      },
      {
        "name": "周泰元",
        "year": 1796,
        "addr": "武威",
        "lat": 37.92691803,
        "lng": 102.63469696
      }
    ]
  },
  {
    "id": 9044,
    "name": "蘭州府",
    "count": 47,
    "lat": 36.047031403,
    "lng": 103.84713745,
    "people": [
      {
        "name": "吳可讀",
        "year": 1850,
        "addr": "皋蘭",
        "lat": 36.047031403,
        "lng": 103.84713745
      },
      {
        "name": "秦維嶽",
        "year": 1790,
        "addr": "皋蘭",
        "lat": 36.047031403,
        "lng": 103.84713745
      },
      {
        "name": "王世相",
        "year": 1898,
        "addr": "皋蘭",
        "lat": 36.047031403,
        "lng": 103.84713745
      },
      {
        "name": "顏豫春",
        "year": 1876,
        "addr": "皋蘭",
        "lat": 36.047031403,
        "lng": 103.84713745
      },
      {
        "name": "顏履敬",
        "year": 1840,
        "addr": "皋蘭",
        "lat": 36.047031403,
        "lng": 103.84713745
      },
      {
        "name": "王世奎",
        "year": 1898,
        "addr": "皋蘭",
        "lat": 36.047031403,
        "lng": 103.84713745
      },
      {
        "name": "王樹中",
        "year": 1894,
        "addr": "皋蘭",
        "lat": 36.047031403,
        "lng": 103.84713745
      },
      {
        "name": "巫樸",
        "year": 1817,
        "addr": "皋蘭",
        "lat": 36.047031403,
        "lng": 103.84713745
      },
      {
        "name": "于登瀛",
        "year": 1876,
        "addr": "皋蘭",
        "lat": 36.047031403,
        "lng": 103.84713745
      },
      {
        "name": "張兆熊",
        "year": 1836,
        "addr": "皋蘭",
        "lat": 36.047031403,
        "lng": 103.84713745
      },
      {
        "name": "張壽慶",
        "year": 1862,
        "addr": "皋蘭",
        "lat": 36.047031403,
        "lng": 103.84713745
      },
      {
        "name": "張協中",
        "year": 1894,
        "addr": "皋蘭",
        "lat": 36.047031403,
        "lng": 103.84713745
      },
      {
        "name": "張樹滋",
        "year": 1880,
        "addr": "皋蘭",
        "lat": 36.047031403,
        "lng": 103.84713745
      },
      {
        "name": "張林焱",
        "year": 1894,
        "addr": "皋蘭",
        "lat": 36.047031403,
        "lng": 103.84713745
      },
      {
        "name": "張國常",
        "year": 1877,
        "addr": "皋蘭",
        "lat": 36.047031403,
        "lng": 103.84713745
      },
      {
        "name": "張照南",
        "year": 1853,
        "addr": "皋蘭",
        "lat": 36.047031403,
        "lng": 103.84713745
      },
      {
        "name": "張炳",
        "year": 1833,
        "addr": "皋蘭",
        "lat": 36.047031403,
        "lng": 103.84713745
      },
      {
        "name": "孫尚仁",
        "year": 1892,
        "addr": "皋蘭",
        "lat": 36.047031403,
        "lng": 103.84713745
      },
      {
        "name": "鄧元濬",
        "year": 1898,
        "addr": "皋蘭",
        "lat": 36.047031403,
        "lng": 103.84713745
      },
      {
        "name": "雒宗易",
        "year": 1860,
        "addr": "靖遠",
        "lat": 36.565273285,
        "lng": 104.68428802
      },
      {
        "name": "柴樸",
        "year": 1894,
        "addr": "皋蘭",
        "lat": 36.047031403,
        "lng": 103.84713745
      },
      {
        "name": "白種岳",
        "year": 1805,
        "addr": "靖遠",
        "lat": 36.565273285,
        "lng": 104.68428802
      },
      {
        "name": "魏命侯",
        "year": 1898,
        "addr": "金縣",
        "lat": 35.846820831,
        "lng": 104.10787201
      },
      {
        "name": "魯膺泰",
        "year": 1859,
        "addr": "皋蘭",
        "lat": 36.047031403,
        "lng": 103.84713745
      },
      {
        "name": "顧名",
        "year": 1820,
        "addr": "金縣",
        "lat": 35.846820831,
        "lng": 104.10787201
      },
      {
        "name": "梁濟瀍",
        "year": 1745,
        "addr": "皋蘭",
        "lat": 36.047031403,
        "lng": 103.84713745
      },
      {
        "name": "李揚宗",
        "year": 1883,
        "addr": "皋蘭",
        "lat": 36.047031403,
        "lng": 103.84713745
      },
      {
        "name": "彭立拭",
        "year": 1903,
        "addr": "皋蘭",
        "lat": 36.047031403,
        "lng": 103.84713745
      },
      {
        "name": "范振緒",
        "year": 1903,
        "addr": "靖遠",
        "lat": 36.565273285,
        "lng": 104.68428802
      },
      {
        "name": "黃在中",
        "year": 1809,
        "addr": "皋蘭",
        "lat": 36.047031403,
        "lng": 103.84713745
      },
      {
        "name": "黃毓鱗",
        "year": 1890,
        "addr": "皋蘭",
        "lat": 36.047031403,
        "lng": 103.84713745
      },
      {
        "name": "楊師震",
        "year": 1847,
        "addr": "靖遠",
        "lat": 36.565273285,
        "lng": 104.68428802
      },
      {
        "name": "楊巨川",
        "year": 1904,
        "addr": "金縣",
        "lat": 35.846820831,
        "lng": 104.10787201
      },
      {
        "name": "秦霖熙",
        "year": 1877,
        "addr": "皋蘭",
        "lat": 36.047031403,
        "lng": 103.84713745
      },
      {
        "name": "戚維禮",
        "year": 1835,
        "addr": "靖遠",
        "lat": 36.565273285,
        "lng": 104.68428802
      },
      {
        "name": "曹炯",
        "year": 1840,
        "addr": "皋蘭",
        "lat": 36.047031403,
        "lng": 103.84713745
      },
      {
        "name": "田得吉",
        "year": 1856,
        "addr": "靖遠",
        "lat": 36.565273285,
        "lng": 104.68428802
      },
      {
        "name": "羅經權",
        "year": 1895,
        "addr": "金縣",
        "lat": 35.846820831,
        "lng": 104.10787201
      },
      {
        "name": "馬中律",
        "year": 1874,
        "addr": "金縣",
        "lat": 35.846820831,
        "lng": 104.10787201
      },
      {
        "name": "劉爾炘",
        "year": 1889,
        "addr": "皋蘭",
        "lat": 36.047031403,
        "lng": 103.84713745
      },
      {
        "name": "劉積義",
        "year": 1892,
        "addr": "皋蘭",
        "lat": 36.047031403,
        "lng": 103.84713745
      },
      {
        "name": "陳彬",
        "year": 1880,
        "addr": "皋蘭",
        "lat": 36.047031403,
        "lng": 103.84713745
      },
      {
        "name": "周得程",
        "year": 1883,
        "addr": "皋蘭",
        "lat": 36.047031403,
        "lng": 103.84713745
      },
      {
        "name": "周毓棠",
        "year": 1890,
        "addr": "皋蘭",
        "lat": 36.047031403,
        "lng": 103.84713745
      },
      {
        "name": "段士俊",
        "year": 1903,
        "addr": "皋蘭",
        "lat": 36.047031403,
        "lng": 103.84713745
      },
      {
        "name": "關元儒",
        "year": 1802,
        "addr": "皋蘭",
        "lat": 36.047031403,
        "lng": 103.84713745
      },
      {
        "name": "高鴻儒",
        "year": 1853,
        "addr": "金縣",
        "lat": 35.846820831,
        "lng": 104.10787201
      }
    ]
  },
  {
    "id": 9056,
    "name": "平凉府",
    "count": 46,
    "lat": 35.535850525,
    "lng": 106.68569946,
    "people": [
      {
        "name": "施維翰",
        "year": 1652,
        "addr": "華亭",
        "lat": 35.218842,
        "lng": 106.651955
      },
      {
        "name": "王廣心",
        "year": 1649,
        "addr": "華亭",
        "lat": 35.218842,
        "lng": 106.651955
      },
      {
        "name": "王圖炳",
        "year": 1712,
        "addr": "華亭",
        "lat": 35.218842,
        "lng": 106.651955
      },
      {
        "name": "章霖",
        "year": 1655,
        "addr": "華亭",
        "lat": 35.218842,
        "lng": 106.651955
      },
      {
        "name": "謝潁元",
        "year": 1739,
        "addr": "華亭",
        "lat": 35.218842,
        "lng": 106.651955
      },
      {
        "name": "許啟源",
        "year": 1652,
        "addr": "華亭",
        "lat": 35.218842,
        "lng": 106.651955
      },
      {
        "name": "王奭",
        "year": 1688,
        "addr": "華亭",
        "lat": 35.218842,
        "lng": 106.651955
      },
      {
        "name": "王楨",
        "year": 1694,
        "addr": "華亭",
        "lat": 35.218842,
        "lng": 106.651955
      },
      {
        "name": "王坦",
        "year": 1723,
        "addr": "華亭",
        "lat": 35.218842,
        "lng": 106.651955
      },
      {
        "name": "王顯曾",
        "year": 1760,
        "addr": "華亭",
        "lat": 35.218842,
        "lng": 106.651955
      },
      {
        "name": "王又汧",
        "year": 1661,
        "addr": "華亭",
        "lat": 35.218842,
        "lng": 106.651955
      },
      {
        "name": "王興吾",
        "year": 1727,
        "addr": "華亭",
        "lat": 35.218842,
        "lng": 106.651955
      },
      {
        "name": "王鏗",
        "year": 1649,
        "addr": "華亭",
        "lat": 35.218842,
        "lng": 106.651955
      },
      {
        "name": "雷崶",
        "year": 1847,
        "addr": "華亭",
        "lat": 35.218842,
        "lng": 106.651955
      },
      {
        "name": "張一鵠",
        "year": 1658,
        "addr": "華亭",
        "lat": 35.218842,
        "lng": 106.651955
      },
      {
        "name": "張翮",
        "year": 1700,
        "addr": "華亭",
        "lat": 35.218842,
        "lng": 106.651955
      },
      {
        "name": "張兆昌",
        "year": 1723,
        "addr": "華亭",
        "lat": 35.218842,
        "lng": 106.651955
      },
      {
        "name": "崔奎瑞",
        "year": 1876,
        "addr": "隆德",
        "lat": 35.617092133,
        "lng": 106.12223816
      },
      {
        "name": "朱紹鳳",
        "year": 1649,
        "addr": "華亭",
        "lat": 35.218842,
        "lng": 106.651955
      },
      {
        "name": "朱逢辛",
        "year": 1829,
        "addr": "華亭",
        "lat": 35.218842,
        "lng": 106.651955
      },
      {
        "name": "吳元龍",
        "year": 1679,
        "addr": "華亭",
        "lat": 35.218842,
        "lng": 106.651955
      },
      {
        "name": "吳元詒",
        "year": 1700,
        "addr": "華亭",
        "lat": 35.218842,
        "lng": 106.651955
      },
      {
        "name": "程班",
        "year": 1724,
        "addr": "華亭",
        "lat": 35.218842,
        "lng": 106.651955
      },
      {
        "name": "程有成",
        "year": 1728,
        "addr": "華亭",
        "lat": 35.218842,
        "lng": 106.651955
      },
      {
        "name": "徐鼎",
        "year": 1647,
        "addr": "華亭",
        "lat": 35.218842,
        "lng": 106.651955
      },
      {
        "name": "徐士泰",
        "year": 1801,
        "addr": "華亭",
        "lat": 35.218842,
        "lng": 106.651955
      },
      {
        "name": "宋慶遠",
        "year": 1661,
        "addr": "華亭",
        "lat": 35.218842,
        "lng": 106.651955
      },
      {
        "name": "顧蓮",
        "year": 1880,
        "addr": "華亭",
        "lat": 35.218842,
        "lng": 106.651955
      },
      {
        "name": "沈霖溥",
        "year": 1876,
        "addr": "華亭",
        "lat": 35.218842,
        "lng": 106.651955
      },
      {
        "name": "沈承烈",
        "year": 1718,
        "addr": "華亭",
        "lat": 35.218842,
        "lng": 106.651955
      },
      {
        "name": "沈藻",
        "year": 1685,
        "addr": "華亭",
        "lat": 35.218842,
        "lng": 106.651955
      },
      {
        "name": "沈若木",
        "year": 1757,
        "addr": "華亭",
        "lat": 35.218842,
        "lng": 106.651955
      },
      {
        "name": "沈第",
        "year": 1715,
        "addr": "華亭",
        "lat": 35.218842,
        "lng": 106.651955
      },
      {
        "name": "李登瀛",
        "year": 1685,
        "addr": "華亭",
        "lat": 35.218842,
        "lng": 106.651955
      },
      {
        "name": "李廷榘",
        "year": 1652,
        "addr": "華亭",
        "lat": 35.218842,
        "lng": 106.651955
      },
      {
        "name": "李飛鯤",
        "year": 1713,
        "addr": "華亭",
        "lat": 35.218842,
        "lng": 106.651955
      },
      {
        "name": "李夢元",
        "year": 1736,
        "addr": "華亭",
        "lat": 35.218842,
        "lng": 106.651955
      },
      {
        "name": "袁國梓",
        "year": 1649,
        "addr": "華亭",
        "lat": 35.218842,
        "lng": 106.651955
      },
      {
        "name": "董含",
        "year": 1661,
        "addr": "華亭",
        "lat": 35.218842,
        "lng": 106.651955
      },
      {
        "name": "楊裕仁",
        "year": 1841,
        "addr": "華亭",
        "lat": 35.218842,
        "lng": 106.651955
      },
      {
        "name": "楊錫恆",
        "year": 1709,
        "addr": "華亭",
        "lat": 35.218842,
        "lng": 106.651955
      },
      {
        "name": "俞爾昌",
        "year": 1752,
        "addr": "華亭",
        "lat": 35.218842,
        "lng": 106.651955
      },
      {
        "name": "姜遴",
        "year": 1691,
        "addr": "華亭",
        "lat": 35.218842,
        "lng": 106.651955
      },
      {
        "name": "鈕思恪",
        "year": 1748,
        "addr": "華亭",
        "lat": 35.218842,
        "lng": 106.651955
      },
      {
        "name": "高奮生",
        "year": 1760,
        "addr": "華亭",
        "lat": 35.218842,
        "lng": 106.651955
      },
      {
        "name": "唐子鏘",
        "year": 1676,
        "addr": "華亭",
        "lat": 35.218842,
        "lng": 106.651955
      }
    ]
  },
  {
    "id": 9046,
    "name": "秦州直隸州",
    "count": 44,
    "lat": 34.585472107,
    "lng": 105.71695709,
    "people": [
      {
        "name": "張綬",
        "year": 1781,
        "addr": "徽縣",
        "lat": 33.777553558,
        "lng": 106.08666992
      },
      {
        "name": "安維峻",
        "year": 1880,
        "addr": "秦安",
        "lat": 34.863220215,
        "lng": 105.6727066
      },
      {
        "name": "仲振履",
        "year": 1808,
        "addr": "秦州直隸州",
        "lat": 34.585472107,
        "lng": 105.71695709
      },
      {
        "name": "王濟",
        "year": 1889,
        "addr": "秦安",
        "lat": 34.863220215,
        "lng": 105.6727066
      },
      {
        "name": "丁秉乾",
        "year": 1886,
        "addr": "秦州直隸州",
        "lat": 34.585472107,
        "lng": 105.71695709
      },
      {
        "name": "丁錫奎",
        "year": 1892,
        "addr": "秦安",
        "lat": 34.863220215,
        "lng": 105.6727066
      },
      {
        "name": "張慶麟",
        "year": 1862,
        "addr": "秦州直隸州",
        "lat": 34.585472107,
        "lng": 105.71695709
      },
      {
        "name": "張登瀛",
        "year": 1886,
        "addr": "秦州直隸州",
        "lat": 34.585472107,
        "lng": 105.71695709
      },
      {
        "name": "張位",
        "year": 1778,
        "addr": "秦安",
        "lat": 34.863220215,
        "lng": 105.6727066
      },
      {
        "name": "張和",
        "year": 1871,
        "addr": "秦州直隸州",
        "lat": 34.585472107,
        "lng": 105.71695709
      },
      {
        "name": "張心至",
        "year": 1769,
        "addr": "清水",
        "lat": 34.746303558,
        "lng": 106.13658142
      },
      {
        "name": "張肇基",
        "year": 1894,
        "addr": "秦安",
        "lat": 34.863220215,
        "lng": 105.6727066
      },
      {
        "name": "張世英",
        "year": 1880,
        "addr": "秦州直隸州",
        "lat": 34.585472107,
        "lng": 105.71695709
      },
      {
        "name": "張思誠",
        "year": 1809,
        "addr": "秦安",
        "lat": 34.863220215,
        "lng": 105.6727066
      },
      {
        "name": "武頌揚",
        "year": 1880,
        "addr": "秦州直隸州",
        "lat": 34.585472107,
        "lng": 105.71695709
      },
      {
        "name": "邢光祖",
        "year": 1880,
        "addr": "秦州直隸州",
        "lat": 34.585472107,
        "lng": 105.71695709
      },
      {
        "name": "焦忠賢",
        "year": 1892,
        "addr": "禮縣",
        "lat": 34.191364288,
        "lng": 105.17829132
      },
      {
        "name": "任承允",
        "year": 1894,
        "addr": "秦州直隸州",
        "lat": 34.585472107,
        "lng": 105.71695709
      },
      {
        "name": "任其昌",
        "year": 1865,
        "addr": "秦州直隸州",
        "lat": 34.585472107,
        "lng": 105.71695709
      },
      {
        "name": "伏衍羲",
        "year": 1892,
        "addr": "秦安",
        "lat": 34.863220215,
        "lng": 105.6727066
      },
      {
        "name": "朱慶鏞",
        "year": 1871,
        "addr": "秦州直隸州",
        "lat": 34.585472107,
        "lng": 105.71695709
      },
      {
        "name": "魏垂象",
        "year": 1903,
        "addr": "秦安",
        "lat": 34.863220215,
        "lng": 105.6727066
      },
      {
        "name": "吳墱",
        "year": 1751,
        "addr": "秦安",
        "lat": 34.863220215,
        "lng": 105.6727066
      },
      {
        "name": "徐友麟",
        "year": 1886,
        "addr": "秦州直隸州",
        "lat": 34.585472107,
        "lng": 105.71695709
      },
      {
        "name": "梁士選",
        "year": 1895,
        "addr": "禮縣",
        "lat": 34.191364288,
        "lng": 105.17829132
      },
      {
        "name": "李應紫",
        "year": 1876,
        "addr": "禮縣",
        "lat": 34.191364288,
        "lng": 105.17829132
      },
      {
        "name": "李謙",
        "year": 1820,
        "addr": "秦安",
        "lat": 34.863220215,
        "lng": 105.6727066
      },
      {
        "name": "李蓉鏡",
        "year": 1829,
        "addr": "秦安",
        "lat": 34.863220215,
        "lng": 105.6727066
      },
      {
        "name": "彭繩祖",
        "year": 1853,
        "addr": "秦安",
        "lat": 34.863220215,
        "lng": 105.6727066
      },
      {
        "name": "蘇統武",
        "year": 1876,
        "addr": "秦州直隸州",
        "lat": 34.585472107,
        "lng": 105.71695709
      },
      {
        "name": "韓遇春",
        "year": 1700,
        "addr": "清水",
        "lat": 34.746303558,
        "lng": 106.13658142
      },
      {
        "name": "葛汝葆",
        "year": 1890,
        "addr": "秦州直隸州",
        "lat": 34.585472107,
        "lng": 105.71695709
      },
      {
        "name": "蔡曰逢",
        "year": 1718,
        "addr": "秦安",
        "lat": 34.863220215,
        "lng": 105.6727066
      },
      {
        "name": "楊于果",
        "year": 1775,
        "addr": "秦安",
        "lat": 34.863220215,
        "lng": 105.6727066
      },
      {
        "name": "楊潤身",
        "year": 1898,
        "addr": "秦州直隸州",
        "lat": 34.585472107,
        "lng": 105.71695709
      },
      {
        "name": "趙文源",
        "year": 1880,
        "addr": "秦州直隸州",
        "lat": 34.585472107,
        "lng": 105.71695709
      },
      {
        "name": "哈銳",
        "year": 1892,
        "addr": "秦州直隸州",
        "lat": 34.585472107,
        "lng": 105.71695709
      },
      {
        "name": "劉永亨",
        "year": 1877,
        "addr": "秦州直隸州直轄地方",
        "lat": 34.585472107,
        "lng": 105.71695709
      },
      {
        "name": "劉永清",
        "year": 1886,
        "addr": "秦安",
        "lat": 34.863220215,
        "lng": 105.6727066
      },
      {
        "name": "劉杭",
        "year": 1877,
        "addr": "清水",
        "lat": 34.746303558,
        "lng": 106.13658142
      },
      {
        "name": "劉光祖",
        "year": 1886,
        "addr": "秦州直隸州",
        "lat": 34.585472107,
        "lng": 105.71695709
      },
      {
        "name": "陳養源",
        "year": 1895,
        "addr": "秦州直隸州",
        "lat": 34.585472107,
        "lng": 105.71695709
      },
      {
        "name": "閻樸",
        "year": 1871,
        "addr": "清水",
        "lat": 34.746303558,
        "lng": 106.13658142
      },
      {
        "name": "鄭選士",
        "year": 1898,
        "addr": "秦州直隸州",
        "lat": 34.585472107,
        "lng": 105.71695709
      }
    ]
  },
  {
    "id": 9069,
    "name": "寧夏府",
    "count": 26,
    "lat": 38.466972351,
    "lng": 106.27397156,
    "people": [
      {
        "name": "俞德淵",
        "year": 1817,
        "addr": "平羅",
        "lat": 38.906406403,
        "lng": 106.54293823
      },
      {
        "name": "周栻",
        "year": 1789,
        "addr": "寧夏",
        "lat": 38.466972,
        "lng": 106.273972
      },
      {
        "name": "謝升",
        "year": 1730,
        "addr": "寧夏",
        "lat": 38.466972,
        "lng": 106.273972
      },
      {
        "name": "王贊襄",
        "year": 1845,
        "addr": "中衛",
        "lat": 37.513248444,
        "lng": 105.18660736
      },
      {
        "name": "王肇基",
        "year": 1739,
        "addr": "中衛",
        "lat": 37.513248444,
        "lng": 105.18660736
      },
      {
        "name": "張玘",
        "year": 1766,
        "addr": "寧夏",
        "lat": 38.466972,
        "lng": 106.273972
      },
      {
        "name": "張心銘",
        "year": 1874,
        "addr": "中衛",
        "lat": 37.513248444,
        "lng": 105.18660736
      },
      {
        "name": "張為章",
        "year": 1862,
        "addr": "平羅",
        "lat": 38.906406403,
        "lng": 106.54293823
      },
      {
        "name": "張鴻翼",
        "year": 1862,
        "addr": "平羅",
        "lat": 38.906406403,
        "lng": 106.54293823
      },
      {
        "name": "張志濂",
        "year": 1789,
        "addr": "中衛",
        "lat": 37.513248444,
        "lng": 105.18660736
      },
      {
        "name": "張埰",
        "year": 1715,
        "addr": "寧夏",
        "lat": 38.466972,
        "lng": 106.273972
      },
      {
        "name": "吳桂",
        "year": 1775,
        "addr": "寧朔",
        "lat": 38.466972351,
        "lng": 106.27397156
      },
      {
        "name": "馮燦",
        "year": 1772,
        "addr": "寧夏",
        "lat": 38.466972,
        "lng": 106.273972
      },
      {
        "name": "李信芳",
        "year": 1850,
        "addr": "寧朔",
        "lat": 38.466972351,
        "lng": 106.27397156
      },
      {
        "name": "李實",
        "year": 1781,
        "addr": "寧夏",
        "lat": 38.466972,
        "lng": 106.273972
      },
      {
        "name": "李蔭椿",
        "year": 1757,
        "addr": "寧夏",
        "lat": 38.466972,
        "lng": 106.273972
      },
      {
        "name": "姬學周",
        "year": 1805,
        "addr": "寧夏",
        "lat": 38.466972,
        "lng": 106.273972
      },
      {
        "name": "楊魁甲",
        "year": 1721,
        "addr": "寧夏",
        "lat": 38.466972,
        "lng": 106.273972
      },
      {
        "name": "楊浣雨",
        "year": 1771,
        "addr": "寧夏",
        "lat": 38.466972,
        "lng": 106.273972
      },
      {
        "name": "楊掄",
        "year": 1763,
        "addr": "中衛",
        "lat": 37.513248444,
        "lng": 105.18660736
      },
      {
        "name": "羅全詩",
        "year": 1752,
        "addr": "中衛",
        "lat": 37.513248444,
        "lng": 105.18660736
      },
      {
        "name": "路談",
        "year": 1751,
        "addr": "寧夏",
        "lat": 38.466972,
        "lng": 106.273972
      },
      {
        "name": "馬丙昭",
        "year": 1852,
        "addr": "寧夏",
        "lat": 38.466972,
        "lng": 106.273972
      },
      {
        "name": "劉霖",
        "year": 1739,
        "addr": "中衛",
        "lat": 37.513248444,
        "lng": 105.18660736
      },
      {
        "name": "陳作樞",
        "year": 1778,
        "addr": "寧朔",
        "lat": 38.466972351,
        "lng": 106.27397156
      },
      {
        "name": "俞壽祺",
        "year": 1874,
        "addr": "平羅",
        "lat": 38.906406403,
        "lng": 106.54293823
      }
    ]
  },
  {
    "id": 9071,
    "name": "固原直隸州",
    "count": 22,
    "lat": 36.014095306,
    "lng": 106.27809906,
    "people": [
      {
        "name": "龐家淦",
        "year": 1844,
        "addr": "海城",
        "lat": 36.56055069,
        "lng": 105.64231873
      },
      {
        "name": "謝昇庸",
        "year": 1745,
        "addr": "平遠",
        "lat": 37.111183167,
        "lng": 106.44728851
      },
      {
        "name": "諶曾謨",
        "year": 1880,
        "addr": "平遠",
        "lat": 37.111183167,
        "lng": 106.44728851
      },
      {
        "name": "王衷亮",
        "year": 1823,
        "addr": "海城",
        "lat": 36.56055069,
        "lng": 105.64231873
      },
      {
        "name": "王元治",
        "year": 1847,
        "addr": "海城",
        "lat": 36.56055069,
        "lng": 105.64231873
      },
      {
        "name": "王元善",
        "year": 1840,
        "addr": "海城",
        "lat": 36.56055069,
        "lng": 105.64231873
      },
      {
        "name": "王承烈",
        "year": 1673,
        "addr": "平遠",
        "lat": 37.111183167,
        "lng": 106.44728851
      },
      {
        "name": "王福清",
        "year": 1772,
        "addr": "海城",
        "lat": 36.56055069,
        "lng": 105.64231873
      },
      {
        "name": "王錫命",
        "year": 1742,
        "addr": "海城",
        "lat": 36.56055069,
        "lng": 105.64231873
      },
      {
        "name": "丁壽鶴",
        "year": 1883,
        "addr": "平遠",
        "lat": 37.111183167,
        "lng": 106.44728851
      },
      {
        "name": "夏雲岫",
        "year": 1832,
        "addr": "海城",
        "lat": 36.56055069,
        "lng": 105.64231873
      },
      {
        "name": "張鵬舉",
        "year": 1874,
        "addr": "固原直隸州",
        "lat": 36.014095306,
        "lng": 106.27809906
      },
      {
        "name": "孫昭",
        "year": 1751,
        "addr": "海城",
        "lat": 36.56055069,
        "lng": 105.64231873
      },
      {
        "name": "何珣",
        "year": 1808,
        "addr": "平遠",
        "lat": 37.111183167,
        "lng": 106.44728851
      },
      {
        "name": "欒駿聲",
        "year": 1903,
        "addr": "海城",
        "lat": 36.56055069,
        "lng": 105.64231873
      },
      {
        "name": "魏大文",
        "year": 1757,
        "addr": "平遠",
        "lat": 37.111183167,
        "lng": 106.44728851
      },
      {
        "name": "姚璋",
        "year": 1795,
        "addr": "平遠",
        "lat": 37.111183167,
        "lng": 106.44728851
      },
      {
        "name": "蕭漢申",
        "year": 1805,
        "addr": "平遠",
        "lat": 37.111183167,
        "lng": 106.44728851
      },
      {
        "name": "趙俊升",
        "year": 1886,
        "addr": "海城",
        "lat": 36.56055069,
        "lng": 105.64231873
      },
      {
        "name": "劉震",
        "year": 1745,
        "addr": "海城",
        "lat": 36.56055069,
        "lng": 105.64231873
      },
      {
        "name": "劉述元",
        "year": 1745,
        "addr": "平遠",
        "lat": 37.111183167,
        "lng": 106.44728851
      },
      {
        "name": "劉光斗",
        "year": 1822,
        "addr": "海城",
        "lat": 36.56055069,
        "lng": 105.64231873
      }
    ]
  },
  {
    "id": 9058,
    "name": "慶陽府",
    "count": 15,
    "lat": 36.0051651,
    "lng": 107.87602234,
    "people": [
      {
        "name": "謝王寵",
        "year": 1706,
        "addr": "靈武驛"
      },
      {
        "name": "王育",
        "year": 1809,
        "addr": "安化",
        "lat": 36.0051651,
        "lng": 107.87602234
      },
      {
        "name": "王銘鼎",
        "year": 1841,
        "addr": "安化",
        "lat": 36.0051651,
        "lng": 107.87602234
      },
      {
        "name": "石攻玉",
        "year": 1739,
        "addr": "正寧",
        "lat": 35.326461792,
        "lng": 108.20916748
      },
      {
        "name": "李方泰",
        "year": 1751,
        "addr": "安化",
        "lat": 36.0051651,
        "lng": 107.87602234
      },
      {
        "name": "黃崇光",
        "year": 1811,
        "addr": "安化",
        "lat": 36.0051651,
        "lng": 107.87602234
      },
      {
        "name": "黃鳳岐",
        "year": 1894,
        "addr": "安化",
        "lat": 36.0051651,
        "lng": 107.87602234
      },
      {
        "name": "超詣",
        "year": 1889,
        "addr": "安化",
        "lat": 36.0051651,
        "lng": 107.87602234
      },
      {
        "name": "趙紹武",
        "year": 1835,
        "addr": "正寧",
        "lat": 35.326461792,
        "lng": 108.20916748
      },
      {
        "name": "惠登甲",
        "year": 1876,
        "addr": "安化",
        "lat": 36.0051651,
        "lng": 107.87602234
      },
      {
        "name": "秦琮",
        "year": 1826,
        "addr": "安化",
        "lat": 36.0051651,
        "lng": 107.87602234
      },
      {
        "name": "劉世德",
        "year": 1871,
        "addr": "安化",
        "lat": 36.0051651,
        "lng": 107.87602234
      },
      {
        "name": "劉世昌",
        "year": 1876,
        "addr": "安化",
        "lat": 36.0051651,
        "lng": 107.87602234
      },
      {
        "name": "米漢雯",
        "year": 1661,
        "addr": "安化",
        "lat": 36.0051651,
        "lng": 107.87602234
      },
      {
        "name": "高希賢",
        "year": 1835,
        "addr": "安化",
        "lat": 36.0051651,
        "lng": 107.87602234
      }
    ]
  },
  {
    "id": 6772,
    "name": "寧州",
    "count": 14,
    "lat": 38.490063,
    "lng": 115.5747,
    "people": [
      {
        "name": "張登鰲",
        "year": 1760,
        "addr": "寧州",
        "lat": 38.490063,
        "lng": 115.5747
      },
      {
        "name": "邵桂芳",
        "year": 1835,
        "addr": "寧州",
        "lat": 38.490063,
        "lng": 115.5747
      },
      {
        "name": "徐文幹",
        "year": 1778,
        "addr": "寧州",
        "lat": 38.490063,
        "lng": 115.5747
      },
      {
        "name": "徐耀祖",
        "year": 1752,
        "addr": "寧州",
        "lat": 38.490063,
        "lng": 115.5747
      },
      {
        "name": "胡敏",
        "year": 1772,
        "addr": "寧州",
        "lat": 38.490063,
        "lng": 115.5747
      },
      {
        "name": "趙世章",
        "year": 1793,
        "addr": "寧州",
        "lat": 38.490063,
        "lng": 115.5747
      },
      {
        "name": "劉家達",
        "year": 1841,
        "addr": "寧州",
        "lat": 38.490063,
        "lng": 115.5747
      },
      {
        "name": "劉大紳",
        "year": 1772,
        "addr": "寧州",
        "lat": 38.490063,
        "lng": 115.5747
      },
      {
        "name": "劉有光",
        "year": 1886,
        "addr": "寧州",
        "lat": 38.490063,
        "lng": 115.5747
      },
      {
        "name": "劉觀光",
        "year": 1850,
        "addr": "寧州",
        "lat": 38.490063,
        "lng": 115.5747
      },
      {
        "name": "陳琳",
        "year": 1742,
        "addr": "寧州",
        "lat": 38.490063,
        "lng": 115.5747
      },
      {
        "name": "陳鶴鳴",
        "year": 1790,
        "addr": "寧州",
        "lat": 38.490063,
        "lng": 115.5747
      },
      {
        "name": "陳鍈",
        "year": 1748,
        "addr": "寧州",
        "lat": 38.490063,
        "lng": 115.5747
      },
      {
        "name": "榮錫楷",
        "year": 1781,
        "addr": "寧州",
        "lat": 38.490063,
        "lng": 115.5747
      }
    ]
  },
  {
    "id": 6774,
    "name": "靜寧州",
    "count": 12,
    "lat": 35.524097443,
    "lng": 105.7288208,
    "people": [
      {
        "name": "慕天顏",
        "year": 1655,
        "addr": "靜寧州",
        "lat": 35.524097443,
        "lng": 105.7288208
      },
      {
        "name": "王源瀚",
        "year": 1886,
        "addr": "靜寧州",
        "lat": 35.524097443,
        "lng": 105.7288208
      },
      {
        "name": "王曜南",
        "year": 1895,
        "addr": "靜寧州",
        "lat": 35.524097443,
        "lng": 105.7288208
      },
      {
        "name": "張文源",
        "year": 1903,
        "addr": "靜寧州",
        "lat": 35.524097443,
        "lng": 105.7288208
      },
      {
        "name": "孫雲錦",
        "year": 1898,
        "addr": "靜寧州",
        "lat": 35.524097443,
        "lng": 105.7288208
      },
      {
        "name": "吳正丙",
        "year": 1862,
        "addr": "靜寧州",
        "lat": 35.524097443,
        "lng": 105.7288208
      },
      {
        "name": "慕琛",
        "year": 1682,
        "addr": "靜寧州",
        "lat": 35.524097443,
        "lng": 105.7288208
      },
      {
        "name": "慕鏊",
        "year": 1796,
        "addr": "靜寧州",
        "lat": 35.524097443,
        "lng": 105.7288208
      },
      {
        "name": "葉桂",
        "year": 1822,
        "addr": "靜寧州",
        "lat": 35.524097443,
        "lng": 105.7288208
      },
      {
        "name": "柳炯",
        "year": 1853,
        "addr": "靜寧州",
        "lat": 35.524097443,
        "lng": 105.7288208
      },
      {
        "name": "趙貢玉",
        "year": 1856,
        "addr": "靜寧州",
        "lat": 35.524097443,
        "lng": 105.7288208
      },
      {
        "name": "唐濂",
        "year": 1730,
        "addr": "靜寧州",
        "lat": 35.524097443,
        "lng": 105.7288208
      }
    ]
  },
  {
    "id": 20634,
    "name": "靈州",
    "count": 11,
    "lat": 38.088886,
    "lng": 106.32814,
    "people": [
      {
        "name": "張煦",
        "year": 1853,
        "addr": "靈州",
        "lat": 38.088886,
        "lng": 106.32814
      },
      {
        "name": "王晟",
        "year": 1780,
        "addr": "靈州",
        "lat": 38.088886,
        "lng": 106.32814
      },
      {
        "name": "張雋選",
        "year": 1860,
        "addr": "靈州",
        "lat": 38.088886,
        "lng": 106.32814
      },
      {
        "name": "孟之珪",
        "year": 1694,
        "addr": "靈州",
        "lat": 38.088886,
        "lng": 106.32814
      },
      {
        "name": "梁棟",
        "year": 1736,
        "addr": "靈州",
        "lat": 38.088886,
        "lng": 106.32814
      },
      {
        "name": "祁颺廷",
        "year": 1801,
        "addr": "靈州",
        "lat": 38.088886,
        "lng": 106.32814
      },
      {
        "name": "李珌",
        "year": 1736,
        "addr": "靈州",
        "lat": 38.088886,
        "lng": 106.32814
      },
      {
        "name": "李㥳",
        "year": 1727,
        "addr": "靈州",
        "lat": 38.088886,
        "lng": 106.32814
      },
      {
        "name": "賀緯",
        "year": 1819,
        "addr": "靈州",
        "lat": 38.088886,
        "lng": 106.32814
      },
      {
        "name": "陸允鎮",
        "year": 1757,
        "addr": "靈州",
        "lat": 38.088886,
        "lng": 106.32814
      },
      {
        "name": "高遴",
        "year": 1748,
        "addr": "靈州",
        "lat": 38.088886,
        "lng": 106.32814
      }
    ]
  },
  {
    "id": 9052,
    "name": "階州直隸州",
    "count": 11,
    "lat": 33.39484024,
    "lng": 104.92927551,
    "people": [
      {
        "name": "何宗韓",
        "year": 1724,
        "addr": "文縣",
        "lat": 32.948001862,
        "lng": 104.6780777
      },
      {
        "name": "邢澍",
        "year": 1790,
        "addr": "階州直隸州",
        "lat": 33.39484024,
        "lng": 104.92927551
      },
      {
        "name": "夏之瑚",
        "year": 1724,
        "addr": "階州直隸州",
        "lat": 33.39484024,
        "lng": 104.92927551
      },
      {
        "name": "何渾",
        "year": 1761,
        "addr": "文縣",
        "lat": 32.948001862,
        "lng": 104.6780777
      },
      {
        "name": "程天錫",
        "year": 1904,
        "addr": "文縣",
        "lat": 32.948001862,
        "lng": 104.6780777
      },
      {
        "name": "韓樹屏",
        "year": 1853,
        "addr": "文縣",
        "lat": 32.948001862,
        "lng": 104.6780777
      },
      {
        "name": "黃居中",
        "year": 1903,
        "addr": "階州直隸州直轄地方",
        "lat": 33.39484024,
        "lng": 104.92927551
      },
      {
        "name": "呂篤",
        "year": 1895,
        "addr": "階州直隸州",
        "lat": 33.39484024,
        "lng": 104.92927551
      },
      {
        "name": "劉光遠",
        "year": 1859,
        "addr": "階州直隸州",
        "lat": 33.39484024,
        "lng": 104.92927551
      },
      {
        "name": "周清現",
        "year": 1811,
        "addr": "文縣",
        "lat": 32.948001862,
        "lng": 104.6780777
      },
      {
        "name": "米橦",
        "year": 1895,
        "addr": "文縣",
        "lat": 32.948001862,
        "lng": 104.6780777
      }
    ]
  },
  {
    "id": 6763,
    "name": "涇州直隸州",
    "count": 9,
    "lat": 35.328807831,
    "lng": 107.36338806,
    "people": [
      {
        "name": "賈侍舜",
        "year": 1819,
        "addr": "鎮原",
        "lat": 35.683887482,
        "lng": 107.19680786
      },
      {
        "name": "張元鼎",
        "year": 1801,
        "addr": "鎮原",
        "lat": 35.683887482,
        "lng": 107.19680786
      },
      {
        "name": "張自植",
        "year": 1841,
        "addr": "靈臺",
        "lat": 35.071903229,
        "lng": 107.61630249
      },
      {
        "name": "張永福",
        "year": 1829,
        "addr": "鎮原",
        "lat": 35.683887482,
        "lng": 107.19680786
      },
      {
        "name": "焦國理",
        "year": 1890,
        "addr": "鎮原",
        "lat": 35.683887482,
        "lng": 107.19680786
      },
      {
        "name": "李清瑞",
        "year": 1859,
        "addr": "鎮原",
        "lat": 35.683887482,
        "lng": 107.19680786
      },
      {
        "name": "李清鑑",
        "year": 1876,
        "addr": "鎮原",
        "lat": 35.683887482,
        "lng": 107.19680786
      },
      {
        "name": "慕維城",
        "year": 1840,
        "addr": "鎮原",
        "lat": 35.683887482,
        "lng": 107.19680786
      },
      {
        "name": "路于兗",
        "year": 1730,
        "addr": "鎮原",
        "lat": 35.683887482,
        "lng": 107.19680786
      }
    ]
  },
  {
    "id": 9070,
    "name": "西寧府",
    "count": 8,
    "lat": 36.608856201,
    "lng": 101.78393555,
    "people": [
      {
        "name": "雲蔚桐",
        "year": 1852,
        "addr": "西寧",
        "lat": 36.608856201,
        "lng": 101.78393555
      },
      {
        "name": "張琦",
        "year": 1883,
        "addr": "西寧",
        "lat": 36.608856201,
        "lng": 101.78393555
      },
      {
        "name": "褚裕仁",
        "year": 1820,
        "addr": "西寧",
        "lat": 36.608856201,
        "lng": 101.78393555
      },
      {
        "name": "來維禮",
        "year": 1883,
        "addr": "西寧",
        "lat": 36.608856201,
        "lng": 101.78393555
      },
      {
        "name": "楊興林",
        "year": 1841,
        "addr": "西寧",
        "lat": 36.608856201,
        "lng": 101.78393555
      },
      {
        "name": "趙爾楷",
        "year": 1718,
        "addr": "西寧",
        "lat": 36.608856201,
        "lng": 101.78393555
      },
      {
        "name": "晁炳",
        "year": 1862,
        "addr": "西寧",
        "lat": 36.608856201,
        "lng": 101.78393555
      },
      {
        "name": "嚴宜",
        "year": 1781,
        "addr": "西寧",
        "lat": 36.608856201,
        "lng": 101.78393555
      }
    ]
  },
  {
    "id": 6768,
    "name": "狄道州",
    "count": 7,
    "lat": 35.379146576,
    "lng": 103.85794067,
    "people": [
      {
        "name": "石作棟",
        "year": 1889,
        "addr": "狄道州",
        "lat": 35.379146576,
        "lng": 103.85794067
      },
      {
        "name": "張晉",
        "year": 1652,
        "addr": "狄道州",
        "lat": 35.379146576,
        "lng": 103.85794067
      },
      {
        "name": "張廷選",
        "year": 1835,
        "addr": "狄道州",
        "lat": 35.379146576,
        "lng": 103.85794067
      },
      {
        "name": "牟標",
        "year": 1860,
        "addr": "狄道州",
        "lat": 35.379146576,
        "lng": 103.85794067
      },
      {
        "name": "李九江",
        "year": 1883,
        "addr": "狄道州",
        "lat": 35.379146576,
        "lng": 103.85794067
      },
      {
        "name": "楊沛霖",
        "year": 1883,
        "addr": "狄道州",
        "lat": 35.379146576,
        "lng": 103.85794067
      },
      {
        "name": "姜應齊",
        "year": 1877,
        "addr": "狄道州",
        "lat": 35.379146576,
        "lng": 103.85794067
      }
    ]
  },
  {
    "id": 20632,
    "name": "寧州",
    "count": 4,
    "lat": 35.501427,
    "lng": 107.930466,
    "people": [
      {
        "name": "劉奕煜",
        "year": 1801,
        "addr": "寧州",
        "lat": 35.501427,
        "lng": 107.930466
      },
      {
        "name": "李松齡",
        "year": 1761,
        "addr": "寧州",
        "lat": 35.501427,
        "lng": 107.930466
      },
      {
        "name": "昔尤祖",
        "year": 1809,
        "addr": "寧州",
        "lat": 35.501427,
        "lng": 107.930466
      },
      {
        "name": "楊中選",
        "year": 1761,
        "addr": "寧州",
        "lat": 35.501427,
        "lng": 107.930466
      }
    ]
  },
  {
    "id": 6767,
    "name": "河州",
    "count": 4,
    "lat": 35.607284546,
    "lng": 103.21117401,
    "people": [
      {
        "name": "王錫",
        "year": 1852,
        "addr": "河州",
        "lat": 35.607284546,
        "lng": 103.21117401
      },
      {
        "name": "張和",
        "year": 1845,
        "addr": "河州",
        "lat": 35.607284546,
        "lng": 103.21117401
      },
      {
        "name": "張協曾",
        "year": 1874,
        "addr": "河州",
        "lat": 35.607284546,
        "lng": 103.21117401
      },
      {
        "name": "鄧隆",
        "year": 1904,
        "addr": "河州",
        "lat": 35.607284546,
        "lng": 103.21117401
      }
    ]
  },
  {
    "id": 6760,
    "name": "岷州",
    "count": 3,
    "lat": 34.436454773,
    "lng": 104.03025055,
    "people": [
      {
        "name": "郭成巍",
        "year": 1757,
        "addr": "岷州",
        "lat": 34.436454773,
        "lng": 104.03025055
      },
      {
        "name": "郭成峻",
        "year": 1745,
        "addr": "岷州",
        "lat": 34.436454773,
        "lng": 104.03025055
      },
      {
        "name": "尹世彩",
        "year": 1890,
        "addr": "岷州",
        "lat": 34.436454773,
        "lng": 104.03025055
      }
    ]
  },
  {
    "id": 9066,
    "name": "甘州府",
    "count": 3,
    "lat": 38.933113098,
    "lng": 100.44992065,
    "people": [
      {
        "name": "馮世和",
        "year": 1754,
        "addr": "張掖",
        "lat": 38.933113098,
        "lng": 100.44992065
      },
      {
        "name": "曹德元",
        "year": 1778,
        "addr": "張掖",
        "lat": 38.933113098,
        "lng": 100.44992065
      },
      {
        "name": "阿應鱗",
        "year": 1802,
        "addr": "張掖",
        "lat": 38.933113098,
        "lng": 100.44992065
      }
    ]
  },
  {
    "id": 9068,
    "name": "安西直隸州",
    "count": 1,
    "lat": 40.534412384,
    "lng": 95.789054871,
    "people": [
      {
        "name": "謝登科",
        "year": 1808,
        "addr": "安西直隸州",
        "lat": 40.534412384,
        "lng": 95.789054871
      }
    ]
  },
  {
    "id": 20008,
    "name": "固原州",
    "count": 1,
    "lat": 36.014095306,
    "lng": 106.27809906,
    "people": [
      {
        "name": "張繡",
        "year": 1733,
        "addr": "固原州",
        "lat": 36.014095306,
        "lng": 106.27809906
      }
    ]
  },
  {
    "id": 7140,
    "name": "肅州直隸州",
    "count": 1,
    "lat": 39.744941711,
    "lng": 98.511253357,
    "people": [
      {
        "name": "趙福淳",
        "year": 1852,
        "addr": "高臺",
        "lat": 39.381217957,
        "lng": 99.820281982
      }
    ]
  }
]